{"places": [{"name": "Balykchy", "lat": 42.45705, "lon": 76.19625, "kind": "city"}, {"name": "Batken", "lat": 40.06119, "lon": 70.8201, "kind": "city"}, {"name": "Bishkek", "lat": 42.87614, "lon": 74.60367, "kind": "city"}, {"name": "Karakol", "lat": 42.49174, "lon": 78.39686, "kind": "city"}, {"name": "Kyzyl-Kiya", "lat": 40.26002, "lon": 72.13124, "kind": "city"}, {"name": "Manas", "lat": 40.92982, "lon": 73.00119, "kind": "city"}, {"name": "Naryn", "lat": 41.4286, "lon": 75.99763, "kind": "city"}, {"name": "Osh", "lat": 40.51727, "lon": 72.80499, "kind": "city"}, {"name": "Talas", "lat": 42.52199, "lon": 72.24769, "kind": "city"}, {"name": "Tokmok", "lat": 42.83765, "lon": 75.29515, "kind": "city"}, {"name": "Özgön", "lat": 40.76881, "lon": 73.29866, "kind": "city"}, {"name": "Ak-Suu", "lat": 42.49968, "lon": 78.52239, "kind": "town"}, {"name": "Aravan", "lat": 40.51146, "lon": 72.49984, "kind": "town"}, {"name": "Aydarken", "lat": 39.94645, "lon": 71.34244, "kind": "town"}, {"name": "Bazar-Korgon", "lat": 41.03489, "lon": 72.74294, "kind": "town"}, {"name": "Chüy", "lat": 42.8232, "lon": 75.28969, "kind": "town"}, {"name": "Gülchö", "lat": 40.31182, "lon": 73.44383, "kind": "town"}, {"name": "Kadamjay", "lat": 40.13022, "lon": 71.72877, "kind": "town"}, {"name": "Kant", "lat": 42.88876, "lon": 74.85008, "kind": "town"}, {"name": "Kara-Balta", "lat": 42.80114, "lon": 73.8523, "kind": "town"}, {"name": "Kara-Köl", "lat": 41.63157, "lon": 72.67175, "kind": "town"}, {"name": "Kara-Suu", "lat": 40.70687, "lon": 72.87991, "kind": "town"}, {"name": "Kayıŋdı", "lat": 42.82712, "lon": 73.67837, "kind": "town"}, {"name": "Kazarman", "lat": 41.4034, "lon": 74.02016, "kind": "town"}, {"name": "Kemin", "lat": 42.78215, "lon": 75.68949, "kind": "town"}, {"name": "Kerben", "lat": 41.48958, "lon": 71.75457, "kind": "town"}, {"name": "Ketmen-Töbö", "lat": 41.73151, "lon": 73.12913, "kind": "town"}, {"name": "Koçkor-Ata", "lat": 41.03539, "lon": 72.4834, "kind": "town"}, {"name": "Kök-Jangak", "lat": 41.03085, "lon": 73.19785, "kind": "town"}, {"name": "Mailuu-Suu", "lat": 41.2457, "lon": 72.45083, "kind": "town"}, {"name": "Nookat", "lat": 40.26571, "lon": 72.6178, "kind": "town"}, {"name": "Orlovka", "lat": 42.74269, "lon": 75.58884, "kind": "town"}, {"name": "Razzakov", "lat": 39.83614, "lon": 69.53123, "kind": "town"}, {"name": "Sülüktü", "lat": 39.94071, "lon": 69.57117, "kind": "town"}, {"name": "Taş-Kömür", "lat": 41.34533, "lon": 72.22154, "kind": "town"}, {"name": "Toktogul", "lat": 41.87194, "lon": 72.93781, "kind": "town"}, {"name": "Çolpon-Ata", "lat": 42.64171, "lon": 77.06652, "kind": "town"}, {"name": "Şamaldı-Say", "lat": 41.19868, "lon": 72.18024, "kind": "town"}, {"name": "Şopokov", "lat": 42.85752, "lon": 74.34199, "kind": "town"}, {"name": "Восточный", "lat": 39.92187, "lon": 69.65017, "kind": "town"}, {"name": "1 Maya", "lat": 41.17415, "lon": 76.04608, "kind": "village"}, {"name": "1-мая", "lat": 40.37343, "lon": 73.40614, "kind": "village"}, {"name": "Abshir-Ata", "lat": 40.23703, "lon": 72.35336, "kind": "village"}, {"name": "Acha-Kaindy", "lat": 41.1428, "lon": 75.81085, "kind": "village"}, {"name": "Achyk Suu", "lat": 39.47134, "lon": 72.49758, "kind": "village"}, {"name": "Agartu", "lat": 40.62257, "lon": 72.88392, "kind": "village"}, {"name": "Ak-Bash", "lat": 41.01352, "lon": 72.98619, "kind": "village"}, {"name": "Ak-Başat", "lat": 42.88425, "lon": 73.91336, "kind": "village"}, {"name": "Ak-Beit", "lat": 40.86358, "lon": 75.14454, "kind": "village"}, {"name": "Ak-Beket", "lat": 42.8051, "lon": 75.63784, "kind": "village"}, {"name": "Ak-Bosogo", "lat": 39.81204, "lon": 73.23342, "kind": "village"}, {"name": "Ak-Bosogo", "lat": 39.92518, "lon": 69.4989, "kind": "village"}, {"name": "Ak-Bulak", "lat": 39.79952, "lon": 69.5284, "kind": "village"}, {"name": "Ak-Bulak", "lat": 40.2731, "lon": 72.12273, "kind": "village"}, {"name": "Ak-Bulak", "lat": 40.21025, "lon": 72.70068, "kind": "village"}, {"name": "Ak-Bulek", "lat": 42.61392, "lon": 78.82228, "kind": "village"}, {"name": "Ak-Bulun", "lat": 42.77968, "lon": 78.21185, "kind": "village"}, {"name": "Ak-Bulun", "lat": 42.76683, "lon": 78.22593, "kind": "village"}, {"name": "Ak-Bulun", "lat": 42.62652, "lon": 78.82355, "kind": "village"}, {"name": "Ak-Chiy", "lat": 42.65096, "lon": 78.80414, "kind": "village"}, {"name": "Ak-Döbö", "lat": 42.45815, "lon": 78.10697, "kind": "village"}, {"name": "Ak-Döbö,", "lat": 42.54617, "lon": 71.95071, "kind": "village"}, {"name": "Ak-Jar", "lat": 41.6144, "lon": 73.37325, "kind": "village"}, {"name": "Ak-Jol", "lat": 41.56471, "lon": 72.19065, "kind": "village"}, {"name": "Ak-Jol", "lat": 42.94023, "lon": 74.48952, "kind": "village"}, {"name": "Ak-Kiya", "lat": 41.45411, "lon": 74.84313, "kind": "village"}, {"name": "Ak-Kolot", "lat": 41.77708, "lon": 73.92217, "kind": "village"}, {"name": "Ak-Korgon", "lat": 41.38616, "lon": 71.58559, "kind": "village"}, {"name": "Ak-Olen", "lat": 42.34793, "lon": 76.1669, "kind": "village"}, {"name": "Ak-Sai", "lat": 42.75009, "lon": 75.05916, "kind": "village"}, {"name": "Ak-Shyirak", "lat": 41.82339, "lon": 78.74635, "kind": "village"}, {"name": "Ak-Suu", "lat": 39.8963, "lon": 69.3713, "kind": "village"}, {"name": "Ak-Suu", "lat": 41.46204, "lon": 72.09182, "kind": "village"}, {"name": "Ak-Suu", "lat": 42.82196, "lon": 74.09795, "kind": "village"}, {"name": "Ak-Tal", "lat": 41.4134, "lon": 75.0506, "kind": "village"}, {"name": "Ak-Talaa", "lat": 41.41753, "lon": 75.66296, "kind": "village"}, {"name": "Ak-Tam", "lat": 41.46965, "lon": 71.6046, "kind": "village"}, {"name": "Ak-Taş", "lat": 41.702, "lon": 70.6452, "kind": "village"}, {"name": "Ak-Tektir", "lat": 41.96172, "lon": 72.51618, "kind": "village"}, {"name": "Ak-Terek", "lat": 40.2438, "lon": 72.742, "kind": "village"}, {"name": "Ak-Took", "lat": 41.18165, "lon": 73.09582, "kind": "village"}, {"name": "Ak-Tuz", "lat": 42.87985, "lon": 76.13406, "kind": "village"}, {"name": "Ak-Zhar", "lat": 42.21583, "lon": 75.61148, "kind": "village"}, {"name": "Akchaluu", "lat": 42.7016, "lon": 75.28977, "kind": "village"}, {"name": "Akmatbek", "lat": 42.7191, "lon": 75.1931, "kind": "village"}, {"name": "Akmoyun", "lat": 41.21692, "lon": 76.05223, "kind": "village"}, {"name": "Akmuz", "lat": 41.24921, "lon": 76.13635, "kind": "village"}, {"name": "Ala-Bash", "lat": 42.11027, "lon": 76.48085, "kind": "village"}, {"name": "Ala-Buka", "lat": 41.40606, "lon": 71.48634, "kind": "village"}, {"name": "Ala-Too", "lat": 42.86378, "lon": 74.47807, "kind": "village"}, {"name": "Alamüdün", "lat": 42.91015, "lon": 74.63665, "kind": "village"}, {"name": "Aleksandrovka", "lat": 42.85769, "lon": 74.22132, "kind": "village"}, {"name": "Alekseevka", "lat": 42.81742, "lon": 73.81606, "kind": "village"}, {"name": "Alga", "lat": 42.76714, "lon": 75.31495, "kind": "village"}, {"name": "Alim-Töbö", "lat": 40.61522, "lon": 72.76723, "kind": "village"}, {"name": "Alma", "lat": 41.08897, "lon": 72.68275, "kind": "village"}, {"name": "Almaluu", "lat": 41.89862, "lon": 73.57048, "kind": "village"}, {"name": "Almaluu", "lat": 42.724, "lon": 75.51174, "kind": "village"}, {"name": "Almalyk", "lat": 40.37971, "lon": 72.71624, "kind": "village"}, {"name": "Alysh", "lat": 40.18431, "lon": 72.07549, "kind": "village"}, {"name": "Amanbaev", "lat": 42.60992, "lon": 71.20455, "kind": "village"}, {"name": "Ananyevo", "lat": 42.73983, "lon": 77.67285, "kind": "village"}, {"name": "Andarak", "lat": 39.7642, "lon": 69.46908, "kind": "village"}, {"name": "Andijan-Mahalla", "lat": 40.64122, "lon": 72.79742, "kind": "village"}, {"name": "Ara-Kol", "lat": 42.17167, "lon": 75.46567, "kind": "village"}, {"name": "Aral", "lat": 40.85842, "lon": 72.68382, "kind": "village"}, {"name": "Aral", "lat": 40.86891, "lon": 72.91764, "kind": "village"}, {"name": "Aral", "lat": 42.53647, "lon": 72.65508, "kind": "village"}, {"name": "Aral", "lat": 41.39693, "lon": 73.90825, "kind": "village"}, {"name": "Aral", "lat": 42.05294, "lon": 74.75805, "kind": "village"}, {"name": "Aral", "lat": 42.85653, "lon": 75.20195, "kind": "village"}, {"name": "Aral", "lat": 42.72495, "lon": 78.54078, "kind": "village"}, {"name": "Arap", "lat": 40.60875, "lon": 72.39092, "kind": "village"}, {"name": "Arashan", "lat": 40.30937, "lon": 72.35431, "kind": "village"}, {"name": "Arashan", "lat": 42.72301, "lon": 74.6294, "kind": "village"}, {"name": "Arbyn", "lat": 40.22249, "lon": 72.73305, "kind": "village"}, {"name": "Arimjan", "lat": 41.01623, "lon": 72.55156, "kind": "village"}, {"name": "Arka", "lat": 40.19789, "lon": 69.88955, "kind": "village"}, {"name": "Arpa-Tektir", "lat": 42.62919, "lon": 75.161, "kind": "village"}, {"name": "Arpatektir", "lat": 40.35833, "lon": 73.38971, "kind": "village"}, {"name": "Arstanbap", "lat": 41.33725, "lon": 72.92873, "kind": "village"}, {"name": "Arsy", "lat": 42.24935, "lon": 75.79114, "kind": "village"}, {"name": "Arçagul", "lat": 42.54001, "lon": 71.12233, "kind": "village"}, {"name": "At-Bashy", "lat": 41.16934, "lon": 75.80878, "kind": "village"}, {"name": "Atana", "lat": 41.3678, "lon": 71.85219, "kind": "village"}, {"name": "Avletim", "lat": 41.64249, "lon": 71.94834, "kind": "village"}, {"name": "Ay-Tamga", "lat": 40.24811, "lon": 72.72695, "kind": "village"}, {"name": "Aygyr Dzahl", "lat": 41.7333, "lon": 71.00676, "kind": "village"}, {"name": "Ayuu-Tapan", "lat": 40.33615, "lon": 73.66698, "kind": "village"}, {"name": "Aŋ-Arık", "lat": 42.91949, "lon": 74.0689, "kind": "village"}, {"name": "Baetov", "lat": 41.26698, "lon": 74.96086, "kind": "village"}, {"name": "Baiterek", "lat": 42.81501, "lon": 74.51242, "kind": "village"}, {"name": "Bakai Ata", "lat": 42.90171, "lon": 74.64782, "kind": "village"}, {"name": "Bakay-Ata", "lat": 42.49042, "lon": 71.92423, "kind": "village"}, {"name": "Balbay", "lat": 42.77978, "lon": 78.29436, "kind": "village"}, {"name": "Baltabay", "lat": 42.4624, "lon": 78.26569, "kind": "village"}, {"name": "Bar-Bulak", "lat": 42.24874, "lon": 76.58181, "kind": "village"}, {"name": "Barskoon", "lat": 42.15793, "lon": 77.6044, "kind": "village"}, {"name": "Bayastan", "lat": 41.33002, "lon": 71.58458, "kind": "village"}, {"name": "Bayet", "lat": 42.6214, "lon": 76.97704, "kind": "village"}, {"name": "Baymunduz", "lat": 41.00185, "lon": 72.66197, "kind": "village"}, {"name": "Baytik", "lat": 42.73815, "lon": 74.54944, "kind": "village"}, {"name": "Baş-Bulak", "lat": 40.5099, "lon": 72.97613, "kind": "village"}, {"name": "Bek-Abad", "lat": 40.84451, "lon": 72.96983, "kind": "village"}, {"name": "Bekzhar", "lat": 40.35997, "lon": 73.14185, "kind": "village"}, {"name": "Bel", "lat": 39.95192, "lon": 71.22803, "kind": "village"}, {"name": "Bel", "lat": 40.26971, "lon": 72.46928, "kind": "village"}, {"name": "Bel-Aldı", "lat": 41.92742, "lon": 73.28948, "kind": "village"}, {"name": "Belovodskoe", "lat": 42.8319, "lon": 74.09692, "kind": "village"}, {"name": "Besh-Tal", "lat": 40.24676, "lon": 72.62821, "kind": "village"}, {"name": "Besh-Terek", "lat": 43.05968, "lon": 73.99571, "kind": "village"}, {"name": "Beş-Küŋgöy", "lat": 42.77378, "lon": 74.64766, "kind": "village"}, {"name": "Beşik-Jon", "lat": 41.04595, "lon": 72.79601, "kind": "village"}, {"name": "Beşkent", "lat": 40.02988, "lon": 69.81844, "kind": "village"}, {"name": "Bir-Bulak", "lat": 42.71163, "lon": 74.55806, "kind": "village"}, {"name": "Birdik", "lat": 41.41192, "lon": 73.90713, "kind": "village"}, {"name": "Birdik", "lat": 42.95756, "lon": 74.90335, "kind": "village"}, {"name": "Birinchi May", "lat": 42.94748, "lon": 73.64094, "kind": "village"}, {"name": "Birinçi May", "lat": 41.09176, "lon": 72.7645, "kind": "village"}, {"name": "Birleshken", "lat": 40.50521, "lon": 72.73128, "kind": "village"}, {"name": "Birlik", "lat": 41.20733, "lon": 75.9481, "kind": "village"}, {"name": "Birlik", "lat": 42.74047, "lon": 78.43495, "kind": "village"}, {"name": "Blagoveshenka", "lat": 40.97579, "lon": 72.96855, "kind": "village"}, {"name": "Bodur-Tash", "lat": 40.42676, "lon": 72.85741, "kind": "village"}, {"name": "Bolshevik", "lat": 40.64578, "lon": 72.89604, "kind": "village"}, {"name": "Bolshevik", "lat": 41.16615, "lon": 75.97881, "kind": "village"}, {"name": "Boo-Terek", "lat": 42.57146, "lon": 71.82814, "kind": "village"}, {"name": "Borborduk", "lat": 40.18759, "lon": 69.82836, "kind": "village"}, {"name": "Bordu", "lat": 42.73052, "lon": 75.55224, "kind": "village"}, {"name": "Bordunskii", "lat": 42.65528, "lon": 75.59993, "kind": "village"}, {"name": "Borko", "lat": 40.24562, "lon": 72.66639, "kind": "village"}, {"name": "Boroldoy", "lat": 42.79188, "lon": 75.85565, "kind": "village"}, {"name": "Boru-Bash", "lat": 42.52552, "lon": 78.36029, "kind": "village"}, {"name": "Bosteri", "lat": 42.66309, "lon": 77.18754, "kind": "village"}, {"name": "Boston", "lat": 41.03656, "lon": 72.44663, "kind": "village"}, {"name": "Boston", "lat": 41.02278, "lon": 72.96898, "kind": "village"}, {"name": "Boz-Beshik", "lat": 42.43277, "lon": 77.94856, "kind": "village"}, {"name": "Boz-Karagan", "lat": 40.33553, "lon": 73.38893, "kind": "village"}, {"name": "Boz-Uchuk", "lat": 42.5659, "lon": 78.75712, "kind": "village"}, {"name": "Bozbulun", "lat": 42.5802, "lon": 78.37247, "kind": "village"}, {"name": "Bujum", "lat": 40.0033, "lon": 70.8324, "kind": "village"}, {"name": "Bulan-Segettu", "lat": 42.67414, "lon": 77.29793, "kind": "village"}, {"name": "Burana", "lat": 42.75124, "lon": 75.26882, "kind": "village"}, {"name": "Burma-Suu", "lat": 42.46304, "lon": 78.34359, "kind": "village"}, {"name": "Böjöy", "lat": 40.01147, "lon": 71.21385, "kind": "village"}, {"name": "Bökönbaev", "lat": 42.11379, "lon": 76.99793, "kind": "village"}, {"name": "Chaek", "lat": 41.92659, "lon": 74.51652, "kind": "village"}, {"name": "Chapaev", "lat": 42.72774, "lon": 75.17962, "kind": "village"}, {"name": "Charaygyr", "lat": 40.26389, "lon": 72.98687, "kind": "village"}, {"name": "Chauvay", "lat": 40.13449, "lon": 72.15542, "kind": "village"}, {"name": "Chech-Debe", "lat": 40.25307, "lon": 72.81157, "kind": "village"}, {"name": "Chekildek", "lat": 42.20119, "lon": 75.58948, "kind": "village"}, {"name": "Chelpek", "lat": 42.45914, "lon": 78.35529, "kind": "village"}, {"name": "Chet-Kyzyl", "lat": 40.14119, "lon": 70.85687, "kind": "village"}, {"name": "Chiy-Talaa", "lat": 39.96809, "lon": 73.4867, "kind": "village"}, {"name": "Choktal", "lat": 42.58953, "lon": 76.74093, "kind": "village"}, {"name": "Cholpon", "lat": 42.19828, "lon": 75.47354, "kind": "village"}, {"name": "Cholpon", "lat": 42.861, "lon": 75.14024, "kind": "village"}, {"name": "Cholpon", "lat": 42.63558, "lon": 78.47595, "kind": "village"}, {"name": "Chon-Aryk", "lat": 42.80201, "lon": 74.5718, "kind": "village"}, {"name": "Chon-Daly", "lat": 42.79807, "lon": 74.81958, "kind": "village"}, {"name": "Chon-Djar", "lat": 42.6625, "lon": 75.38747, "kind": "village"}, {"name": "Chong-Aryk", "lat": 42.71491, "lon": 74.0096, "kind": "village"}, {"name": "Chong-Bülölü", "lat": 40.16695, "lon": 73.62005, "kind": "village"}, {"name": "Chong-Sary-Oy", "lat": 42.60858, "lon": 76.91461, "kind": "village"}, {"name": "Chong-Tebe", "lat": 42.03956, "lon": 74.85281, "kind": "village"}, {"name": "Chong-Toguz-Bay", "lat": 42.71895, "lon": 78.62462, "kind": "village"}, {"name": "Chymkorgon", "lat": 42.81639, "lon": 75.51327, "kind": "village"}, {"name": "Chyrpykty", "lat": 42.51854, "lon": 76.58253, "kind": "village"}, {"name": "Darkhan", "lat": 42.31033, "lon": 77.88766, "kind": "village"}, {"name": "Daroot-Korgon", "lat": 39.55101, "lon": 72.21561, "kind": "village"}, {"name": "Djala-Saldy", "lat": 41.45386, "lon": 71.57554, "kind": "village"}, {"name": "Djany-Pahta", "lat": 43.13865, "lon": 74.2659, "kind": "village"}, {"name": "Djiyde", "lat": 40.29614, "lon": 72.42567, "kind": "village"}, {"name": "Djong - Alysh", "lat": 42.26076, "lon": 75.23302, "kind": "village"}, {"name": "Dmitrievka", "lat": 42.89543, "lon": 74.89963, "kind": "village"}, {"name": "Dolon", "lat": 42.70031, "lon": 78.48214, "kind": "village"}, {"name": "Don-Aryk", "lat": 42.75013, "lon": 75.21642, "kind": "village"}, {"name": "Doskulu", "lat": 42.03306, "lon": 74.98293, "kind": "village"}, {"name": "Dostuk", "lat": 40.17684, "lon": 69.87729, "kind": "village"}, {"name": "Dostuk", "lat": 40.86934, "lon": 72.84641, "kind": "village"}, {"name": "Dostuk", "lat": 41.37653, "lon": 75.63972, "kind": "village"}, {"name": "Drujba", "lat": 42.9345, "lon": 74.71109, "kind": "village"}, {"name": "Dyong - Talaa", "lat": 42.12591, "lon": 76.58346, "kind": "village"}, {"name": "Dzaiylma", "lat": 42.83841, "lon": 73.65487, "kind": "village"}, {"name": "Dzaiylma", "lat": 42.81172, "lon": 74.83343, "kind": "village"}, {"name": "Echki-Bashi", "lat": 41.57031, "lon": 75.89959, "kind": "village"}, {"name": "Emgek-Talaa", "lat": 41.39206, "lon": 75.61069, "kind": "village"}, {"name": "Emgekchil", "lat": 41.55921, "lon": 75.97522, "kind": "village"}, {"name": "Engilchek", "lat": 42.02924, "lon": 79.08114, "kind": "village"}, {"name": "Epkin", "lat": 41.99415, "lon": 74.70069, "kind": "village"}, {"name": "Epkin", "lat": 42.17771, "lon": 75.41697, "kind": "village"}, {"name": "Eriktuu", "lat": 42.90927, "lon": 73.84674, "kind": "village"}, {"name": "Eshperovo", "lat": 42.12324, "lon": 76.89674, "kind": "village"}, {"name": "Frunze", "lat": 42.76441, "lon": 78.18686, "kind": "village"}, {"name": "Gagarin", "lat": 40.02882, "lon": 73.50719, "kind": "village"}, {"name": "Gavrilovka", "lat": 42.86656, "lon": 74.36244, "kind": "village"}, {"name": "Gayrat", "lat": 40.61406, "lon": 72.86638, "kind": "village"}, {"name": "Gerey-Shoron", "lat": 40.29247, "lon": 72.23198, "kind": "village"}, {"name": "Gidrostroitel", "lat": 42.87433, "lon": 75.1618, "kind": "village"}, {"name": "Grigorevka", "lat": 42.71685, "lon": 77.48312, "kind": "village"}, {"name": "Gulbahor", "lat": 40.49085, "lon": 72.66528, "kind": "village"}, {"name": "Gylstan", "lat": 40.2648, "lon": 72.57089, "kind": "village"}, {"name": "Hajir-Abad", "lat": 40.94609, "lon": 72.62016, "kind": "village"}, {"name": "Hauz", "lat": 40.37649, "lon": 72.20314, "kind": "village"}, {"name": "Ichke-Bulun", "lat": 42.50728, "lon": 78.24306, "kind": "village"}, {"name": "Ichke-Jerges", "lat": 42.54334, "lon": 78.71025, "kind": "village"}, {"name": "Ikizyak", "lat": 39.72335, "lon": 73.78216, "kind": "village"}, {"name": "Il'ich", "lat": 42.78631, "lon": 76.00168, "kind": "village"}, {"name": "Imeni Chapaeva", "lat": 40.29437, "lon": 72.66335, "kind": "village"}, {"name": "Intımak", "lat": 42.47469, "lon": 72.10196, "kind": "village"}, {"name": "Isakeyiev", "lat": 42.18114, "lon": 75.77123, "kind": "village"}, {"name": "Iskra", "lat": 42.81241, "lon": 75.43326, "kind": "village"}, {"name": "Issyk-Kul", "lat": 42.6013, "lon": 78.14819, "kind": "village"}, {"name": "Itsay", "lat": 41.64661, "lon": 72.51668, "kind": "village"}, {"name": "Ivanovka", "lat": 42.88745, "lon": 75.08502, "kind": "village"}, {"name": "Jalgyz-Terek", "lat": 41.46311, "lon": 75.78029, "kind": "village"}, {"name": "Jalgyz-Örük", "lat": 42.3169, "lon": 77.97068, "kind": "village"}, {"name": "Jangy-Nookat", "lat": 40.24903, "lon": 72.54694, "kind": "village"}, {"name": "Jangy-Talap", "lat": 41.45767, "lon": 75.01938, "kind": "village"}, {"name": "Jangy-Turmush", "lat": 40.3334, "lon": 73.5745, "kind": "village"}, {"name": "Jany-Alysh", "lat": 42.80992, "lon": 75.60694, "kind": "village"}, {"name": "Jany-Aryk", "lat": 40.65074, "lon": 73.11171, "kind": "village"}, {"name": "Jany-Bazar", "lat": 40.24789, "lon": 72.7613, "kind": "village"}, {"name": "Jany-Dyikan", "lat": 40.95974, "lon": 72.93231, "kind": "village"}, {"name": "Jany-Turmush", "lat": 42.79692, "lon": 75.37598, "kind": "village"}, {"name": "Jar Bashi", "lat": 39.51415, "lon": 72.11815, "kind": "village"}, {"name": "Jar-Bashi", "lat": 40.28438, "lon": 72.98842, "kind": "village"}, {"name": "Jar-Korgon", "lat": 40.23816, "lon": 72.81034, "kind": "village"}, {"name": "Jar-Kıştak", "lat": 39.96782, "lon": 69.37154, "kind": "village"}, {"name": "Jardy-Su", "lat": 42.67391, "lon": 74.00875, "kind": "village"}, {"name": "Jarkınbaev", "lat": 42.73719, "lon": 77.75359, "kind": "village"}, {"name": "Jatan", "lat": 40.30941, "lon": 72.68404, "kind": "village"}, {"name": "Jaŋı-Arık", "lat": 41.05132, "lon": 72.29175, "kind": "village"}, {"name": "Jaŋı-Bazar", "lat": 41.67344, "lon": 70.85421, "kind": "village"}, {"name": "Jaŋı-Jol", "lat": 41.59619, "lon": 72.12078, "kind": "village"}, {"name": "Jekendy", "lat": 39.49867, "lon": 71.9015, "kind": "village"}, {"name": "Jele-Töbö", "lat": 42.44789, "lon": 78.19315, "kind": "village"}, {"name": "Jer-Kazar", "lat": 42.94267, "lon": 74.72749, "kind": "village"}, {"name": "Jerge-Tal", "lat": 41.57344, "lon": 71.81111, "kind": "village"}, {"name": "Jergez", "lat": 42.55043, "lon": 78.67371, "kind": "village"}, {"name": "Jeti-Ögüz", "lat": 42.43073, "lon": 78.21397, "kind": "village"}, {"name": "John-Aryk", "lat": 42.9299, "lon": 73.87694, "kind": "village"}, {"name": "Jol-Bulak", "lat": 42.74063, "lon": 75.89685, "kind": "village"}, {"name": "Jolborstu", "lat": 41.60688, "lon": 72.1998, "kind": "village"}, {"name": "Jon-Bulak", "lat": 42.44322, "lon": 78.25439, "kind": "village"}, {"name": "Joon‑Kunggöy", "lat": 41.16281, "lon": 73.32993, "kind": "village"}, {"name": "Jyldyz", "lat": 42.65203, "lon": 78.44249, "kind": "village"}, {"name": "Jyrgalan", "lat": 42.6084, "lon": 79.00967, "kind": "village"}, {"name": "Jılanlı", "lat": 40.82657, "lon": 73.31553, "kind": "village"}, {"name": "Jıluu-Bulak", "lat": 42.76385, "lon": 78.65655, "kind": "village"}, {"name": "Kaarman", "lat": 40.57773, "lon": 72.90079, "kind": "village"}, {"name": "Kablan-Kyol", "lat": 40.36319, "lon": 73.27682, "kind": "village"}, {"name": "Kairagach", "lat": 40.26427, "lon": 72.50861, "kind": "village"}, {"name": "Kajy-Say", "lat": 42.1379, "lon": 77.18292, "kind": "village"}, {"name": "Kalba", "lat": 42.45181, "lon": 72.39731, "kind": "village"}, {"name": "Kalinin", "lat": 40.63983, "lon": 72.86955, "kind": "village"}, {"name": "Kalinin", "lat": 42.82961, "lon": 73.85836, "kind": "village"}, {"name": "Kalkagar", "lat": 42.07954, "lon": 76.56726, "kind": "village"}, {"name": "Kaltak", "lat": 40.25307, "lon": 72.10348, "kind": "village"}, {"name": "Kalygul", "lat": 42.76714, "lon": 75.27257, "kind": "village"}, {"name": "Kambarabad", "lat": 40.26636, "lon": 72.08126, "kind": "village"}, {"name": "Kamışanovka", "lat": 43.21811, "lon": 74.24142, "kind": "village"}, {"name": "Kan", "lat": 39.75981, "lon": 71.02056, "kind": "village"}, {"name": "Kanış-Kıya", "lat": 41.76515, "lon": 71.06385, "kind": "village"}, {"name": "Kara-Alma", "lat": 41.20969, "lon": 73.33572, "kind": "village"}, {"name": "Kara-Bak", "lat": 40.15883, "lon": 70.81494, "kind": "village"}, {"name": "Kara-Bulak", "lat": 39.94585, "lon": 70.9308, "kind": "village"}, {"name": "Kara-Bulak", "lat": 40.42406, "lon": 73.58283, "kind": "village"}, {"name": "Kara-Bulak", "lat": 42.79828, "lon": 75.74893, "kind": "village"}, {"name": "Kara-Bulun", "lat": 41.09432, "lon": 75.5882, "kind": "village"}, {"name": "Kara-Bulun", "lat": 42.24124, "lon": 75.31562, "kind": "village"}, {"name": "Kara-Debe", "lat": 42.78488, "lon": 75.44531, "kind": "village"}, {"name": "Kara-Dıykan", "lat": 40.7893, "lon": 73.36787, "kind": "village"}, {"name": "Kara-Jal", "lat": 42.57628, "lon": 78.43869, "kind": "village"}, {"name": "Kara-Jygach", "lat": 40.12474, "lon": 72.09164, "kind": "village"}, {"name": "Kara-Jıgaç", "lat": 41.78832, "lon": 73.27947, "kind": "village"}, {"name": "Kara-Kochkor", "lat": 40.66486, "lon": 73.50024, "kind": "village"}, {"name": "Kara-Koo", "lat": 42.21243, "lon": 76.62809, "kind": "village"}, {"name": "Kara-Kulja", "lat": 40.63342, "lon": 73.59097, "kind": "village"}, {"name": "Kara-Kungoj", "lat": 42.20376, "lon": 75.92088, "kind": "village"}, {"name": "Kara-Kyshtak", "lat": 40.1191, "lon": 72.10082, "kind": "village"}, {"name": "Kara-Kyz", "lat": 42.53501, "lon": 78.68613, "kind": "village"}, {"name": "Kara-Küŋgöy", "lat": 41.99465, "lon": 72.48075, "kind": "village"}, {"name": "Kara-Oi", "lat": 42.69326, "lon": 75.26659, "kind": "village"}, {"name": "Kara-Oy", "lat": 42.45944, "lon": 72.71592, "kind": "village"}, {"name": "Kara-Oy", "lat": 42.6362, "lon": 77.02261, "kind": "village"}, {"name": "Kara-Saz", "lat": 42.19801, "lon": 75.89169, "kind": "village"}, {"name": "Kara-Shoro", "lat": 40.33875, "lon": 73.3871, "kind": "village"}, {"name": "Kara-Shoro Nature Park", "lat": 40.75384, "lon": 74.06387, "kind": "village"}, {"name": "Kara-Suu", "lat": 39.87085, "lon": 70.03909, "kind": "village"}, {"name": "Kara-Suu", "lat": 40.28572, "lon": 73.5682, "kind": "village"}, {"name": "Kara-Suu", "lat": 41.68815, "lon": 72.05401, "kind": "village"}, {"name": "Kara-Suu", "lat": 42.1942, "lon": 75.81588, "kind": "village"}, {"name": "Kara-Talaa", "lat": 42.31644, "lon": 76.40398, "kind": "village"}, {"name": "Kara-Tash", "lat": 40.21518, "lon": 72.64148, "kind": "village"}, {"name": "Karagay-Bulak", "lat": 42.6446, "lon": 74.95232, "kind": "village"}, {"name": "Karakol", "lat": 42.60324, "lon": 78.52747, "kind": "village"}, {"name": "Karamyk", "lat": 39.48865, "lon": 71.79513, "kind": "village"}, {"name": "Karanay", "lat": 40.30327, "lon": 72.3847, "kind": "village"}, {"name": "Karasu", "lat": 40.55838, "lon": 73.73631, "kind": "village"}, {"name": "Karasu", "lat": 42.10142, "lon": 76.95146, "kind": "village"}, {"name": "Karatay", "lat": 40.5114, "lon": 73.0109, "kind": "village"}, {"name": "Karaul-Tebe", "lat": 40.53171, "lon": 75.96422, "kind": "village"}, {"name": "Karavan", "lat": 40.29493, "lon": 72.18475, "kind": "village"}, {"name": "Karduj-Arik", "lat": 42.05103, "lon": 74.77248, "kind": "village"}, {"name": "Karool", "lat": 40.03135, "lon": 72.0873, "kind": "village"}, {"name": "Karool-Döbö", "lat": 42.77154, "lon": 77.7316, "kind": "village"}, {"name": "Kashgar-Kyshtak", "lat": 40.62124, "lon": 72.82929, "kind": "village"}, {"name": "Kashka", "lat": 42.69572, "lon": 75.57124, "kind": "village"}, {"name": "Kashka-Bash", "lat": 42.81288, "lon": 74.50388, "kind": "village"}, {"name": "Kashka-Suu", "lat": 41.56563, "lon": 71.68237, "kind": "village"}, {"name": "Kashkaldak", "lat": 40.26892, "lon": 72.66295, "kind": "village"}, {"name": "Katraŋ", "lat": 39.83964, "lon": 70.01647, "kind": "village"}, {"name": "Kaying-Talaa", "lat": 40.30873, "lon": 74.25867, "kind": "village"}, {"name": "Kayirma", "lat": 41.99798, "lon": 74.58553, "kind": "village"}, {"name": "Kayirma-Aryk", "lat": 42.52482, "lon": 78.6563, "kind": "village"}, {"name": "Kaynar", "lat": 42.78069, "lon": 78.58257, "kind": "village"}, {"name": "Kayragaç", "lat": 40.05195, "lon": 69.74297, "kind": "village"}, {"name": "Kayıŋdı", "lat": 42.74362, "lon": 76.15669, "kind": "village"}, {"name": "Kazybek", "lat": 41.03565, "lon": 75.53106, "kind": "village"}, {"name": "Kaşkeleŋ", "lat": 42.79571, "lon": 75.67181, "kind": "village"}, {"name": "Kegety", "lat": 42.69353, "lon": 75.1786, "kind": "village"}, {"name": "Kekerim", "lat": 41.39649, "lon": 73.89098, "kind": "village"}, {"name": "Ken-Suu", "lat": 41.74484, "lon": 74.07599, "kind": "village"}, {"name": "Kenesh", "lat": 40.29998, "lon": 72.24537, "kind": "village"}, {"name": "Kenesh", "lat": 40.49274, "lon": 72.70927, "kind": "village"}, {"name": "Keper-Aryk", "lat": 42.67974, "lon": 73.99261, "kind": "village"}, {"name": "Kerege-Tash", "lat": 40.04792, "lon": 72.09376, "kind": "village"}, {"name": "Kerege-Tash", "lat": 42.51765, "lon": 78.58713, "kind": "village"}, {"name": "Kerme-Too", "lat": 40.51206, "lon": 72.71482, "kind": "village"}, {"name": "Keterme", "lat": 41.80395, "lon": 73.89863, "kind": "village"}, {"name": "Ketermу", "lat": 40.22692, "lon": 72.67588, "kind": "village"}, {"name": "Keçüü", "lat": 41.57583, "lon": 72.26712, "kind": "village"}, {"name": "Keŋ-Buluŋ", "lat": 42.8723, "lon": 75.13358, "kind": "village"}, {"name": "Keŋ-Say", "lat": 40.70702, "lon": 72.90472, "kind": "village"}, {"name": "Keŋeş", "lat": 42.90001, "lon": 74.94463, "kind": "village"}, {"name": "Kichi-Karakol", "lat": 39.90227, "lon": 73.41257, "kind": "village"}, {"name": "Kichi-Kemin", "lat": 42.78381, "lon": 75.90578, "kind": "village"}, {"name": "Kirg Shelk", "lat": 42.87922, "lon": 74.79166, "kind": "village"}, {"name": "Kiçi-Aydarken", "lat": 39.94014, "lon": 71.35606, "kind": "village"}, {"name": "Kiçi-Jargılçak", "lat": 42.20171, "lon": 77.69015, "kind": "village"}, {"name": "Kiçi-Örüktü", "lat": 42.74411, "lon": 77.98283, "kind": "village"}, {"name": "Kochkor", "lat": 42.21318, "lon": 75.75409, "kind": "village"}, {"name": "Kochubaevo", "lat": 40.50795, "lon": 72.44519, "kind": "village"}, {"name": "Koi-Tash", "lat": 42.71731, "lon": 74.66356, "kind": "village"}, {"name": "Kojo-Aryk", "lat": 40.24911, "lon": 72.33269, "kind": "village"}, {"name": "Kojo-Keleng", "lat": 39.96965, "lon": 72.96572, "kind": "village"}, {"name": "Kojomkul", "lat": 42.87523, "lon": 74.44921, "kind": "village"}, {"name": "Kojoyar", "lat": 42.7293, "lon": 77.53395, "kind": "village"}, {"name": "Kok-Art", "lat": 40.26662, "lon": 74.38585, "kind": "village"}, {"name": "Kok-Dzhar", "lat": 42.18304, "lon": 75.65149, "kind": "village"}, {"name": "Kok-Moinok - 1", "lat": 42.45656, "lon": 76.04821, "kind": "village"}, {"name": "Kok-Oi", "lat": 41.88703, "lon": 74.42709, "kind": "village"}, {"name": "Kolot", "lat": 40.98319, "lon": 72.77698, "kind": "village"}, {"name": "Kommunism", "lat": 40.66132, "lon": 72.89013, "kind": "village"}, {"name": "Kommunizm", "lat": 40.29809, "lon": 72.687, "kind": "village"}, {"name": "Komsomolskoe", "lat": 42.9468, "lon": 74.46966, "kind": "village"}, {"name": "Komsomolskoe", "lat": 42.47589, "lon": 78.23734, "kind": "village"}, {"name": "Konkino", "lat": 42.47543, "lon": 78.27512, "kind": "village"}, {"name": "Konur-Olon", "lat": 42.10318, "lon": 76.62207, "kind": "village"}, {"name": "Korgon", "lat": 39.88678, "lon": 69.94492, "kind": "village"}, {"name": "Korgon-Döbö", "lat": 41.58029, "lon": 72.22016, "kind": "village"}, {"name": "Korumdu", "lat": 42.68989, "lon": 77.34379, "kind": "village"}, {"name": "Kosh-Döbö", "lat": 41.08572, "lon": 74.25316, "kind": "village"}, {"name": "Kosh-Korgon", "lat": 42.75523, "lon": 75.42906, "kind": "village"}, {"name": "Koshkol'", "lat": 42.53998, "lon": 76.61307, "kind": "village"}, {"name": "Koshoy", "lat": 42.68773, "lon": 75.35214, "kind": "village"}, {"name": "Koy-Taş", "lat": 41.5787, "lon": 72.11719, "kind": "village"}, {"name": "Krasnaya Reçka", "lat": 42.90153, "lon": 74.9765, "kind": "village"}, {"name": "Krupskoye", "lat": 42.80024, "lon": 74.21182, "kind": "village"}, {"name": "Kulanak", "lat": 41.36209, "lon": 75.51106, "kind": "village"}, {"name": "Kulchu", "lat": 39.50887, "lon": 72.04681, "kind": "village"}, {"name": "Kulundu", "lat": 40.10671, "lon": 69.64246, "kind": "village"}, {"name": "Kum-Aryk", "lat": 42.50751, "lon": 72.22847, "kind": "village"}, {"name": "Kunelek", "lat": 40.14208, "lon": 73.50915, "kind": "village"}, {"name": "Kungey-Joke", "lat": 40.25117, "lon": 72.77956, "kind": "village"}, {"name": "Kuntuu", "lat": 42.80304, "lon": 74.4512, "kind": "village"}, {"name": "Kurankol", "lat": 40.39672, "lon": 73.15261, "kind": "village"}, {"name": "Kurshab", "lat": 40.69094, "lon": 73.19187, "kind": "village"}, {"name": "Kuruluş", "lat": 41.66125, "lon": 70.78357, "kind": "village"}, {"name": "Kuturgan", "lat": 40.93057, "lon": 73.48054, "kind": "village"}, {"name": "Kuturgu", "lat": 42.75334, "lon": 78.12229, "kind": "village"}, {"name": "Kuyruchuk", "lat": 41.97601, "lon": 74.83422, "kind": "village"}, {"name": "Kyol-Tor", "lat": 42.09172, "lon": 76.66516, "kind": "village"}, {"name": "Kyrby", "lat": 42.62326, "lon": 78.39175, "kind": "village"}, {"name": "Kyrgyz-Check", "lat": 40.55215, "lon": 72.87725, "kind": "village"}, {"name": "Kyshtut", "lat": 39.84755, "lon": 71.12033, "kind": "village"}, {"name": "Kyungey", "lat": 40.36255, "lon": 73.29637, "kind": "village"}, {"name": "Kyurmentyu", "lat": 42.79062, "lon": 78.24873, "kind": "village"}, {"name": "Kyzart", "lat": 41.97759, "lon": 74.94923, "kind": "village"}, {"name": "Kyzyl - Djobo", "lat": 42.20322, "lon": 75.26583, "kind": "village"}, {"name": "Kyzyl-Alay", "lat": 39.86045, "lon": 73.28327, "kind": "village"}, {"name": "Kyzyl-Asker", "lat": 42.74216, "lon": 75.33361, "kind": "village"}, {"name": "Kyzyl-Ata", "lat": 41.43173, "lon": 71.53736, "kind": "village"}, {"name": "Kyzyl-Bulak", "lat": 40.22194, "lon": 72.2721, "kind": "village"}, {"name": "Kyzyl-Dyikan", "lat": 42.67693, "lon": 73.97524, "kind": "village"}, {"name": "Kyzyl-Jyldyz", "lat": 41.90505, "lon": 74.47716, "kind": "village"}, {"name": "Kyzyl-Kyja", "lat": 42.65561, "lon": 78.86765, "kind": "village"}, {"name": "Kyzyl-Oktyabr", "lat": 42.76898, "lon": 75.73126, "kind": "village"}, {"name": "Kyzyl-Oy", "lat": 40.35422, "lon": 73.28249, "kind": "village"}, {"name": "Kyzyl-Oy", "lat": 41.95047, "lon": 74.16423, "kind": "village"}, {"name": "Kyzyl-Saray", "lat": 40.62855, "lon": 72.9375, "kind": "village"}, {"name": "Kyzyl-Sengir", "lat": 40.64333, "lon": 73.14175, "kind": "village"}, {"name": "Kyzyl-Senir", "lat": 41.03904, "lon": 72.9969, "kind": "village"}, {"name": "Kyzyl-Shark", "lat": 40.7231, "lon": 72.93246, "kind": "village"}, {"name": "Kyzyl-Suu", "lat": 40.43563, "lon": 73.26022, "kind": "village"}, {"name": "Kyzyl-Suu", "lat": 42.33952, "lon": 78.00465, "kind": "village"}, {"name": "Kyzyl-Teyit", "lat": 40.27905, "lon": 72.5627, "kind": "village"}, {"name": "Kyzyl-Tuu", "lat": 41.05766, "lon": 75.55356, "kind": "village"}, {"name": "Kyzyl-Ungkur", "lat": 41.37859, "lon": 73.06651, "kind": "village"}, {"name": "Kök-Bel", "lat": 40.26035, "lon": 72.92662, "kind": "village"}, {"name": "Kök-Jar", "lat": 40.29966, "lon": 72.36932, "kind": "village"}, {"name": "Kök-Jar", "lat": 41.45822, "lon": 74.83111, "kind": "village"}, {"name": "Kök-Oy", "lat": 42.54756, "lon": 72.20663, "kind": "village"}, {"name": "Kök-Tash", "lat": 42.44402, "lon": 72.03762, "kind": "village"}, {"name": "Kök-Taş", "lat": 39.72805, "lon": 69.39332, "kind": "village"}, {"name": "Köpürö-Bazar", "lat": 42.4791, "lon": 72.95493, "kind": "village"}, {"name": "Kümüş-Aziz", "lat": 40.88426, "lon": 72.95168, "kind": "village"}, {"name": "Kırgız-Kıştak", "lat": 40.30842, "lon": 71.34343, "kind": "village"}, {"name": "Kızıl-Ay", "lat": 40.99498, "lon": 72.68929, "kind": "village"}, {"name": "Kızıl-Bel", "lat": 40.09991, "lon": 70.74125, "kind": "village"}, {"name": "Kızıl-Jar", "lat": 41.14493, "lon": 72.08832, "kind": "village"}, {"name": "Kızıl-Jar", "lat": 41.27387, "lon": 72.00442, "kind": "village"}, {"name": "Kızıl-Jol", "lat": 40.04319, "lon": 70.80838, "kind": "village"}, {"name": "Kızıl-Jıldız", "lat": 41.02933, "lon": 72.52177, "kind": "village"}, {"name": "Kızıl-Kapçıgay", "lat": 41.6078, "lon": 71.79599, "kind": "village"}, {"name": "Kızıl-Kıştak", "lat": 40.56259, "lon": 72.76084, "kind": "village"}, {"name": "Kızıl-Oktyabr", "lat": 41.10065, "lon": 72.79034, "kind": "village"}, {"name": "Kızıl-Tokoy", "lat": 41.38516, "lon": 71.32702, "kind": "village"}, {"name": "Kızıl-Tuu", "lat": 41.67887, "lon": 72.0255, "kind": "village"}, {"name": "Kızıl-Uraan", "lat": 41.69712, "lon": 73.30099, "kind": "village"}, {"name": "Kızıl-Özgörüş", "lat": 41.6543, "lon": 73.41514, "kind": "village"}, {"name": "Laglan", "lat": 40.27965, "lon": 73.09454, "kind": "village"}, {"name": "Lakol", "lat": 41.93229, "lon": 76.14729, "kind": "village"}, {"name": "Lebedinovka", "lat": 42.8856, "lon": 74.67553, "kind": "village"}, {"name": "Lipenka", "lat": 42.52273, "lon": 78.20154, "kind": "village"}, {"name": "Luxemburg", "lat": 42.88885, "lon": 74.83338, "kind": "village"}, {"name": "Madanijat", "lat": 42.70741, "lon": 75.44852, "kind": "village"}, {"name": "Madanyat", "lat": 40.59901, "lon": 72.89664, "kind": "village"}, {"name": "Mady", "lat": 40.53931, "lon": 72.93319, "kind": "village"}, {"name": "Maevka", "lat": 42.92046, "lon": 74.56949, "kind": "village"}, {"name": "Malovodnoye", "lat": 42.84589, "lon": 74.37991, "kind": "village"}, {"name": "Mamagan", "lat": 40.61117, "lon": 72.91903, "kind": "village"}, {"name": "Maman", "lat": 42.50682, "lon": 78.44656, "kind": "village"}, {"name": "Manas", "lat": 42.48594, "lon": 72.52706, "kind": "village"}, {"name": "Manas", "lat": 42.99882, "lon": 74.43781, "kind": "village"}, {"name": "Mangyt", "lat": 40.45599, "lon": 72.56836, "kind": "village"}, {"name": "Mantysh", "lat": 42.19611, "lon": 75.2571, "kind": "village"}, {"name": "Ması", "lat": 41.06647, "lon": 72.64053, "kind": "village"}, {"name": "Maydan", "lat": 40.06029, "lon": 72.0854, "kind": "village"}, {"name": "Mazar-Suu", "lat": 41.94479, "lon": 72.65585, "kind": "village"}, {"name": "Merkit", "lat": 40.30201, "lon": 72.22314, "kind": "village"}, {"name": "Mihaylovka", "lat": 42.61009, "lon": 78.33359, "kind": "village"}, {"name": "Mikhaylovka", "lat": 41.09843, "lon": 73.22673, "kind": "village"}, {"name": "Milyanfan", "lat": 42.96706, "lon": 74.78839, "kind": "village"}, {"name": "Min-Bulak", "lat": 41.48315, "lon": 75.85316, "kind": "village"}, {"name": "Ming-Kush", "lat": 41.67334, "lon": 74.45413, "kind": "village"}, {"name": "Miyazdy", "lat": 40.32244, "lon": 73.60339, "kind": "village"}, {"name": "Mukur", "lat": 41.61765, "lon": 71.89072, "kind": "village"}, {"name": "Munduz", "lat": 42.44623, "lon": 78.13922, "kind": "village"}, {"name": "Muras", "lat": 40.02559, "lon": 69.94564, "kind": "village"}, {"name": "Murdash", "lat": 40.15512, "lon": 73.46314, "kind": "village"}, {"name": "Murkut", "lat": 40.30384, "lon": 72.20695, "kind": "village"}, {"name": "Myrza-Ake", "lat": 40.75322, "lon": 73.41373, "kind": "village"}, {"name": "Mıkan", "lat": 42.93897, "lon": 74.65529, "kind": "village"}, {"name": "Naray", "lat": 40.28511, "lon": 72.34996, "kind": "village"}, {"name": "Nariman", "lat": 40.58977, "lon": 72.8176, "kind": "village"}, {"name": "Navopokrovka", "lat": 42.87073, "lon": 74.73408, "kind": "village"}, {"name": "Nayman", "lat": 40.32063, "lon": 72.34506, "kind": "village"}, {"name": "Nayman", "lat": 40.45877, "lon": 72.1838, "kind": "village"}, {"name": "Niçke-Say", "lat": 41.69564, "lon": 73.43252, "kind": "village"}, {"name": "Nooken", "lat": 41.03909, "lon": 72.58783, "kind": "village"}, {"name": "Noot", "lat": 41.90571, "lon": 73.57782, "kind": "village"}, {"name": "Novo-Voznesenovka", "lat": 42.58633, "lon": 78.74592, "kind": "village"}, {"name": "Novonikolaevka", "lat": 42.83248, "lon": 73.89211, "kind": "village"}, {"name": "Novopavlovka", "lat": 42.87056, "lon": 74.48667, "kind": "village"}, {"name": "Noygut", "lat": 40.24521, "lon": 72.60931, "kind": "village"}, {"name": "Nurdar", "lat": 40.58634, "lon": 72.77938, "kind": "village"}, {"name": "Oktyabr", "lat": 40.25898, "lon": 73.58309, "kind": "village"}, {"name": "Oktyabr", "lat": 43.12027, "lon": 74.49492, "kind": "village"}, {"name": "Oktyabrskoe", "lat": 41.0432, "lon": 73.10035, "kind": "village"}, {"name": "Olagysh", "lat": 40.1846, "lon": 72.08476, "kind": "village"}, {"name": "Onbir-Dzhylga", "lat": 42.69496, "lon": 75.42141, "kind": "village"}, {"name": "Orlinoye", "lat": 42.60263, "lon": 78.55222, "kind": "village"}, {"name": "Ornek", "lat": 42.59895, "lon": 76.85806, "kind": "village"}, {"name": "Orok", "lat": 42.8118, "lon": 74.53489, "kind": "village"}, {"name": "Orozbekov", "lat": 40.05948, "lon": 71.68259, "kind": "village"}, {"name": "Orto-Boz", "lat": 39.9619, "lon": 70.50598, "kind": "village"}, {"name": "Orto-Sai", "lat": 42.8045, "lon": 74.59263, "kind": "village"}, {"name": "Orto-Örüktü", "lat": 42.74161, "lon": 77.93984, "kind": "village"}, {"name": "Ortok", "lat": 42.19988, "lon": 75.36405, "kind": "village"}, {"name": "Osoaviakhim", "lat": 40.32421, "lon": 73.63294, "kind": "village"}, {"name": "Osoviahim", "lat": 41.23493, "lon": 74.53689, "kind": "village"}, {"name": "Osoviahim", "lat": 42.21403, "lon": 75.46115, "kind": "village"}, {"name": "Otogon", "lat": 42.70261, "lon": 75.14643, "kind": "village"}, {"name": "Otradnoe", "lat": 42.5898, "lon": 78.65783, "kind": "village"}, {"name": "Otuz-Adyr", "lat": 40.60284, "lon": 72.96654, "kind": "village"}, {"name": "Otuzuul", "lat": 42.54423, "lon": 78.47553, "kind": "village"}, {"name": "Oy-Bulak", "lat": 42.74936, "lon": 78.08903, "kind": "village"}, {"name": "Oy-Tal", "lat": 40.42714, "lon": 74.10085, "kind": "village"}, {"name": "Oy-Tal", "lat": 42.74374, "lon": 78.00733, "kind": "village"}, {"name": "Ozernoe", "lat": 42.93989, "lon": 74.43421, "kind": "village"}, {"name": "Ozgorush", "lat": 39.75628, "lon": 70.054, "kind": "village"}, {"name": "Ozgur", "lat": 40.44939, "lon": 72.85593, "kind": "village"}, {"name": "Pakhtachi", "lat": 40.50189, "lon": 72.47107, "kind": "village"}, {"name": "Panfilov", "lat": 42.78924, "lon": 73.6806, "kind": "village"}, {"name": "Pervoye Maya", "lat": 40.6282, "lon": 73.67947, "kind": "village"}, {"name": "Petrovka", "lat": 42.83825, "lon": 74.03729, "kind": "village"}, {"name": "Podgornoe", "lat": 42.75324, "lon": 75.54401, "kind": "village"}, {"name": "Poltavka", "lat": 42.84169, "lon": 73.95087, "kind": "village"}, {"name": "Predteçenka", "lat": 42.95527, "lon": 74.05676, "kind": "village"}, {"name": "Prigorognoye", "lat": 42.90357, "lon": 74.53763, "kind": "village"}, {"name": "Prjevalsk pristanı", "lat": 42.57375, "lon": 78.31088, "kind": "village"}, {"name": "Progress", "lat": 42.72205, "lon": 75.39224, "kind": "village"}, {"name": "Pum", "lat": 40.07425, "lon": 72.10035, "kind": "village"}, {"name": "Pülgön", "lat": 40.13829, "lon": 71.73235, "kind": "village"}, {"name": "Ravat", "lat": 39.88103, "lon": 70.17047, "kind": "village"}, {"name": "Raykomol", "lat": 41.58861, "lon": 72.22435, "kind": "village"}, {"name": "Romanovka", "lat": 42.86641, "lon": 74.32977, "kind": "village"}, {"name": "Rot-Front", "lat": 42.72244, "lon": 75.10567, "kind": "village"}, {"name": "Sadovoe", "lat": 42.85427, "lon": 74.17637, "kind": "village"}, {"name": "Sadovoe", "lat": 43.15071, "lon": 74.3278, "kind": "village"}, {"name": "Sadovoe", "lat": 42.76507, "lon": 75.37905, "kind": "village"}, {"name": "Sadovoe", "lat": 42.92707, "lon": 74.66811, "kind": "village"}, {"name": "Sai", "lat": 41.22234, "lon": 73.35563, "kind": "village"}, {"name": "Sailyk", "lat": 42.8099, "lon": 75.38168, "kind": "village"}, {"name": "Samarkandek", "lat": 39.99832, "lon": 70.54579, "kind": "village"}, {"name": "Samat", "lat": 39.90972, "lon": 69.50679, "kind": "village"}, {"name": "Sargata", "lat": 41.7351, "lon": 73.20042, "kind": "village"}, {"name": "Sari-Küngöy", "lat": 40.50634, "lon": 73.61839, "kind": "village"}, {"name": "Saruu", "lat": 42.32036, "lon": 77.92252, "kind": "village"}, {"name": "Sary-Bulak", "lat": 40.48556, "lon": 73.6295, "kind": "village"}, {"name": "Sary-Bulak", "lat": 40.65657, "lon": 73.52984, "kind": "village"}, {"name": "Sary-Bulak", "lat": 42.03193, "lon": 74.51823, "kind": "village"}, {"name": "Sary-Kamysh", "lat": 40.61301, "lon": 73.54197, "kind": "village"}, {"name": "Sary-Kamysh", "lat": 42.4937, "lon": 76.28567, "kind": "village"}, {"name": "Sary-Kamysh", "lat": 42.52475, "lon": 78.63108, "kind": "village"}, {"name": "Sary-Mogol", "lat": 39.67625, "lon": 72.88462, "kind": "village"}, {"name": "Sary-Oy", "lat": 42.61238, "lon": 76.94561, "kind": "village"}, {"name": "Sary-Tash", "lat": 39.72823, "lon": 73.24888, "kind": "village"}, {"name": "Sary-Tash", "lat": 40.37866, "lon": 72.22174, "kind": "village"}, {"name": "Sarybulun", "lat": 41.74053, "lon": 74.27795, "kind": "village"}, {"name": "Sarykandy", "lat": 40.30883, "lon": 72.3689, "kind": "village"}, {"name": "Sarı-Buluŋ", "lat": 42.67023, "lon": 78.18269, "kind": "village"}, {"name": "Sarı-Kaşka", "lat": 41.40656, "lon": 71.88491, "kind": "village"}, {"name": "Sarı-Sögöt", "lat": 41.92052, "lon": 73.25944, "kind": "village"}, {"name": "Sasyk-Bulak", "lat": 42.76448, "lon": 75.76478, "kind": "village"}, {"name": "Say", "lat": 40.58285, "lon": 73.65865, "kind": "village"}, {"name": "Say-Talaa", "lat": 40.30259, "lon": 74.27977, "kind": "village"}, {"name": "Selekcionnoe", "lat": 42.83506, "lon": 74.52242, "kind": "village"}, {"name": "Semenovka", "lat": 42.72505, "lon": 77.55419, "kind": "village"}, {"name": "Semetey", "lat": 42.73684, "lon": 71.61086, "kind": "village"}, {"name": "Semiz-Bel", "lat": 42.24395, "lon": 75.83043, "kind": "village"}, {"name": "Shabdan", "lat": 42.73535, "lon": 76.07908, "kind": "village"}, {"name": "Shalta", "lat": 42.80015, "lon": 74.48302, "kind": "village"}, {"name": "Shamshy", "lat": 42.30958, "lon": 75.44642, "kind": "village"}, {"name": "Shamsi", "lat": 42.6989, "lon": 75.36235, "kind": "village"}, {"name": "Shankol", "lat": 40.22635, "lon": 72.74374, "kind": "village"}, {"name": "Shapak", "lat": 42.59997, "lon": 78.6808, "kind": "village"}, {"name": "Socialchi", "lat": 42.87241, "lon": 74.89117, "kind": "village"}, {"name": "Sogondu", "lat": 40.18554, "lon": 73.4866, "kind": "village"}, {"name": "Sokuluk", "lat": 42.85653, "lon": 74.2983, "kind": "village"}, {"name": "Sopu-Korgon", "lat": 40.01418, "lon": 73.49608, "kind": "village"}, {"name": "Sosnovka", "lat": 42.67425, "lon": 73.90488, "kind": "village"}, {"name": "Sotsial", "lat": 42.86756, "lon": 74.90579, "kind": "village"}, {"name": "Sovet", "lat": 40.16704, "lon": 71.31119, "kind": "village"}, {"name": "Sovetskoe", "lat": 42.70967, "lon": 75.2319, "kind": "village"}, {"name": "Sovetskoye", "lat": 42.71459, "lon": 75.12016, "kind": "village"}, {"name": "Spartak", "lat": 43.03484, "lon": 74.13149, "kind": "village"}, {"name": "Sretenka", "lat": 42.92689, "lon": 74.13077, "kind": "village"}, {"name": "Staraya Pokrovka", "lat": 40.68545, "lon": 73.15397, "kind": "village"}, {"name": "Stavropolovka", "lat": 43.01617, "lon": 73.85586, "kind": "village"}, {"name": "Stepnoye", "lat": 42.94037, "lon": 74.50841, "kind": "village"}, {"name": "Suhana", "lat": 40.26317, "lon": 72.10218, "kind": "village"}, {"name": "Sultan", "lat": 42.68574, "lon": 75.31638, "kind": "village"}, {"name": "Sumsar", "lat": 41.30941, "lon": 71.24359, "kind": "village"}, {"name": "Suusamyr", "lat": 42.18151, "lon": 73.95896, "kind": "village"}, {"name": "Suzak", "lat": 40.89686, "lon": 72.91192, "kind": "village"}, {"name": "Svetlaya Polyana", "lat": 42.35053, "lon": 78.06729, "kind": "village"}, {"name": "Syrt", "lat": 39.9142, "lon": 71.23434, "kind": "village"}, {"name": "Süymönkul Chokmorov", "lat": 42.75083, "lon": 74.60105, "kind": "village"}, {"name": "Sın-Taş", "lat": 42.70245, "lon": 75.0601, "kind": "village"}, {"name": "Sını", "lat": 41.61465, "lon": 72.04474, "kind": "village"}, {"name": "Taldy-Bulak", "lat": 42.71193, "lon": 75.28207, "kind": "village"}, {"name": "Taldy-Suu", "lat": 39.70331, "lon": 72.97072, "kind": "village"}, {"name": "Taldy-Suu", "lat": 41.19088, "lon": 76.13869, "kind": "village"}, {"name": "Taldyk", "lat": 40.3134, "lon": 73.21938, "kind": "village"}, {"name": "Taldı-Suu", "lat": 42.78608, "lon": 78.49907, "kind": "village"}, {"name": "Tamasha", "lat": 40.05164, "lon": 71.87899, "kind": "village"}, {"name": "Tamchy", "lat": 42.5647, "lon": 76.6606, "kind": "village"}, {"name": "Tamga", "lat": 42.15071, "lon": 77.54942, "kind": "village"}, {"name": "Tar-Suu", "lat": 42.70698, "lon": 76.06043, "kind": "village"}, {"name": "Tarykchy", "lat": 40.65686, "lon": 72.86414, "kind": "village"}, {"name": "Tash-Dobo", "lat": 42.03127, "lon": 74.77831, "kind": "village"}, {"name": "Tash-Dobo", "lat": 42.72553, "lon": 74.57181, "kind": "village"}, {"name": "Tash-Kyia", "lat": 42.46301, "lon": 78.38418, "kind": "village"}, {"name": "Tash-Moinok", "lat": 42.73942, "lon": 74.65553, "kind": "village"}, {"name": "Tashkoro", "lat": 40.24652, "lon": 73.37154, "kind": "village"}, {"name": "Tasma", "lat": 42.71064, "lon": 78.59025, "kind": "village"}, {"name": "Tayan", "lat": 39.90249, "lon": 71.10564, "kind": "village"}, {"name": "Tegerek-Saz", "lat": 40.42576, "lon": 73.61759, "kind": "village"}, {"name": "Tegirmech", "lat": 40.19724, "lon": 72.08113, "kind": "village"}, {"name": "Tegirmenti", "lat": 42.76673, "lon": 76.16041, "kind": "village"}, {"name": "Tegyzchyl", "lat": 42.56464, "lon": 78.42122, "kind": "village"}, {"name": "Telimana", "lat": 40.68899, "lon": 72.86357, "kind": "village"}, {"name": "Temen-Su", "lat": 42.69902, "lon": 74.02128, "kind": "village"}, {"name": "Temir", "lat": 42.70363, "lon": 77.41805, "kind": "village"}, {"name": "Temir-Koruk", "lat": 40.23148, "lon": 72.58617, "kind": "village"}, {"name": "Temirkanat", "lat": 42.05531, "lon": 76.92312, "kind": "village"}, {"name": "Tepke", "lat": 42.60127, "lon": 78.41415, "kind": "village"}, {"name": "Terek-Say", "lat": 41.5074, "lon": 71.14702, "kind": "village"}, {"name": "Terek-Suu", "lat": 41.11846, "lon": 75.73308, "kind": "village"}, {"name": "Teskey-Kojoke", "lat": 40.2342, "lon": 72.78685, "kind": "village"}, {"name": "Tilekmat", "lat": 42.43307, "lon": 78.15098, "kind": "village"}, {"name": "Toguz Bulak", "lat": 40.38252, "lon": 73.41789, "kind": "village"}, {"name": "Toguz-Bulak", "lat": 39.86391, "lon": 69.74742, "kind": "village"}, {"name": "Toguz-Bulak", "lat": 40.47207, "lon": 73.62658, "kind": "village"}, {"name": "Toguz-Bulak", "lat": 41.5675, "lon": 75.79074, "kind": "village"}, {"name": "Toguz-Bulak", "lat": 42.09157, "lon": 76.7423, "kind": "village"}, {"name": "Toguz-Bulak", "lat": 42.68525, "lon": 78.30471, "kind": "village"}, {"name": "Tokoyan", "lat": 42.71478, "lon": 78.68712, "kind": "village"}, {"name": "Toluk", "lat": 41.89985, "lon": 73.60071, "kind": "village"}, {"name": "Tong", "lat": 42.15578, "lon": 77.04472, "kind": "village"}, {"name": "Torkent", "lat": 41.83962, "lon": 73.15336, "kind": "village"}, {"name": "Toru-Aigyr", "lat": 42.49657, "lon": 76.42563, "kind": "village"}, {"name": "Tosh-Bulak", "lat": 42.67674, "lon": 74.23941, "kind": "village"}, {"name": "Toskool", "lat": 41.19666, "lon": 72.69219, "kind": "village"}, {"name": "Tunuk Suu", "lat": 39.77871, "lon": 71.04269, "kind": "village"}, {"name": "Tuura Suu", "lat": 42.13937, "lon": 76.33313, "kind": "village"}, {"name": "Tuz", "lat": 42.79146, "lon": 74.8551, "kind": "village"}, {"name": "Tuz", "lat": 42.15487, "lon": 75.49981, "kind": "village"}, {"name": "Tuz-Bel", "lat": 40.56447, "lon": 73.33991, "kind": "village"}, {"name": "Tyugel'say", "lat": 41.98931, "lon": 74.75908, "kind": "village"}, {"name": "Tölöykön", "lat": 40.45087, "lon": 72.84456, "kind": "village"}, {"name": "Tömönkü Norus", "lat": 42.92625, "lon": 74.74289, "kind": "village"}, {"name": "Tömönkü Çüy", "lat": 43.18918, "lon": 74.35123, "kind": "village"}, {"name": "Töölös", "lat": 40.88096, "lon": 73.05795, "kind": "village"}, {"name": "Töş", "lat": 40.87539, "lon": 72.62786, "kind": "village"}, {"name": "Tüp", "lat": 42.73365, "lon": 78.35941, "kind": "village"}, {"name": "Uch-Kainar", "lat": 42.53715, "lon": 78.46277, "kind": "village"}, {"name": "Uch-Töbö", "lat": 39.89711, "lon": 73.41655, "kind": "village"}, {"name": "Uchbay", "lat": 40.3021, "lon": 72.70834, "kind": "village"}, {"name": "Uchkun", "lat": 40.5839, "lon": 72.91784, "kind": "village"}, {"name": "Verhnii Orok", "lat": 42.80553, "lon": 74.52201, "kind": "village"}, {"name": "Vinogradnoe", "lat": 42.84049, "lon": 75.33997, "kind": "village"}, {"name": "Vostochnoe", "lat": 42.8067, "lon": 75.42577, "kind": "village"}, {"name": "Vostok", "lat": 42.90545, "lon": 74.67453, "kind": "village"}, {"name": "Ylay-Talaa", "lat": 40.59093, "lon": 73.60273, "kind": "village"}, {"name": "Yrdyk", "lat": 42.45918, "lon": 78.30246, "kind": "village"}, {"name": "Yurevka", "lat": 42.71878, "lon": 75.03452, "kind": "village"}, {"name": "Zardalı", "lat": 39.64477, "lon": 70.95515, "kind": "village"}, {"name": "Zhyly-Suu", "lat": 40.26811, "lon": 73.42403, "kind": "village"}, {"name": "Zyndan", "lat": 42.64108, "lon": 78.86888, "kind": "village"}, {"name": "Çarbak", "lat": 41.25251, "lon": 73.00636, "kind": "village"}, {"name": "Çaŋgır-Taş", "lat": 40.86522, "lon": 72.75817, "kind": "village"}, {"name": "Çkalov", "lat": 41.21377, "lon": 72.94931, "kind": "village"}, {"name": "Çoŋ-Arık", "lat": 41.89098, "lon": 72.64357, "kind": "village"}, {"name": "Çoŋ-Örüktü", "lat": 42.73843, "lon": 77.84806, "kind": "village"}, {"name": "Çuŋkur-Kıştak", "lat": 40.2583, "lon": 71.49892, "kind": "village"}, {"name": "Örüktü", "lat": 41.39372, "lon": 71.42819, "kind": "village"}, {"name": "Örüktü-Hutor", "lat": 42.7393, "lon": 77.82048, "kind": "village"}, {"name": "Ügüt", "lat": 41.41047, "lon": 74.84244, "kind": "village"}, {"name": "Üç-Bulak", "lat": 39.9783, "lon": 69.90595, "kind": "village"}, {"name": "Üç-Korgon", "lat": 40.23992, "lon": 72.05219, "kind": "village"}, {"name": "Üç-Terek", "lat": 41.75921, "lon": 73.20024, "kind": "village"}, {"name": "Şalta", "lat": 42.84003, "lon": 74.3361, "kind": "village"}, {"name": "Şekaftar", "lat": 41.23073, "lon": 71.31979, "kind": "village"}, {"name": "Şeker", "lat": 42.55041, "lon": 71.15729, "kind": "village"}, {"name": "Şıdır", "lat": 41.10597, "lon": 72.72293, "kind": "village"}, {"name": "Абдираимов", "lat": 41.06475, "lon": 72.73299, "kind": "village"}, {"name": "Адыр", "lat": 40.71543, "lon": 73.4213, "kind": "village"}, {"name": "Ажек", "lat": 41.17729, "lon": 71.38642, "kind": "village"}, {"name": "Ай-Көл", "lat": 39.79854, "lon": 69.6533, "kind": "village"}, {"name": "Ай-Тамга", "lat": 40.31606, "lon": 72.25077, "kind": "village"}, {"name": "Айбийке", "lat": 39.85084, "lon": 69.77332, "kind": "village"}, {"name": "Айдарбек", "lat": 42.9089, "lon": 73.914, "kind": "village"}, {"name": "Айры-Там", "lat": 41.13018, "lon": 71.40792, "kind": "village"}, {"name": "Айрыбаз", "lat": 40.24164, "lon": 71.90837, "kind": "village"}, {"name": "Ак Жар", "lat": 41.17402, "lon": 75.788, "kind": "village"}, {"name": "Ак-Арык", "lat": 40.08806, "lon": 69.57011, "kind": "village"}, {"name": "Ак-Башат", "lat": 42.54009, "lon": 71.35354, "kind": "village"}, {"name": "Ак-Бешим", "lat": 42.81591, "lon": 75.25217, "kind": "village"}, {"name": "Ак-Босого", "lat": 39.82178, "lon": 73.25419, "kind": "village"}, {"name": "Ак-Буура-2", "lat": 40.49215, "lon": 72.77747, "kind": "village"}, {"name": "Ак-Буура-3", "lat": 40.51014, "lon": 72.77803, "kind": "village"}, {"name": "Ак-Дөбө", "lat": 41.52046, "lon": 71.75007, "kind": "village"}, {"name": "Ак-Жар", "lat": 40.79592, "lon": 73.48451, "kind": "village"}, {"name": "Ак-Жар", "lat": 42.58784, "lon": 71.27901, "kind": "village"}, {"name": "Ак-Жар", "lat": 42.51376, "lon": 72.38711, "kind": "village"}, {"name": "Ак-Колот", "lat": 40.62258, "lon": 73.02155, "kind": "village"}, {"name": "Ак-Кудук", "lat": 41.48875, "lon": 75.34142, "kind": "village"}, {"name": "Ак-Кыя", "lat": 40.65914, "lon": 73.60161, "kind": "village"}, {"name": "Ак-Сай", "lat": 39.88191, "lon": 70.51673, "kind": "village"}, {"name": "Ак-Сай", "lat": 41.46412, "lon": 72.07572, "kind": "village"}, {"name": "Ак-Талаа", "lat": 42.18304, "lon": 75.32143, "kind": "village"}, {"name": "Ак-Татыр", "lat": 39.95886, "lon": 70.48299, "kind": "village"}, {"name": "Ак-Таш", "lat": 40.66903, "lon": 72.8161, "kind": "village"}, {"name": "Ак-Телек", "lat": 40.39099, "lon": 73.50172, "kind": "village"}, {"name": "Ак-Терек", "lat": 39.87708, "lon": 70.01111, "kind": "village"}, {"name": "Ак-Терек", "lat": 40.5939, "lon": 73.12644, "kind": "village"}, {"name": "Ак-Терек", "lat": 40.57854, "lon": 73.37196, "kind": "village"}, {"name": "Ак-Терек", "lat": 40.8658, "lon": 73.68115, "kind": "village"}, {"name": "Ак-Тилек", "lat": 40.29344, "lon": 71.27425, "kind": "village"}, {"name": "Ак-Шор", "lat": 40.44626, "lon": 72.20942, "kind": "village"}, {"name": "Акимбек", "lat": 40.24369, "lon": 71.87144, "kind": "village"}, {"name": "Акчал", "lat": 40.23214, "lon": 72.29774, "kind": "village"}, {"name": "Ала-Тоо 3", "lat": 42.85341, "lon": 74.47203, "kind": "village"}, {"name": "Алга", "lat": 40.23577, "lon": 71.50021, "kind": "village"}, {"name": "Алиаскар Токтоналиев", "lat": 42.74787, "lon": 75.01691, "kind": "village"}, {"name": "Алмалуу", "lat": 42.80363, "lon": 74.34839, "kind": "village"}, {"name": "Алмалуу", "lat": 42.68981, "lon": 74.83946, "kind": "village"}, {"name": "Алп-Ордо", "lat": 40.44516, "lon": 73.24458, "kind": "village"}, {"name": "Алтын", "lat": 42.95696, "lon": 73.79123, "kind": "village"}, {"name": "Алтын-Бешик", "lat": 39.81169, "lon": 69.61421, "kind": "village"}, {"name": "Алтын-Булак", "lat": 40.72478, "lon": 73.58188, "kind": "village"}, {"name": "Ана Кызыл", "lat": 40.82956, "lon": 73.22186, "kind": "village"}, {"name": "Андархам", "lat": 40.00786, "lon": 69.84472, "kind": "village"}, {"name": "Апкан", "lat": 40.08584, "lon": 71.09786, "kind": "village"}, {"name": "Апыртан", "lat": 41.08354, "lon": 72.6525, "kind": "village"}, {"name": "Ара-Кол", "lat": 40.88605, "lon": 73.7692, "kind": "village"}, {"name": "Арал", "lat": 40.99072, "lon": 72.63968, "kind": "village"}, {"name": "Арал", "lat": 42.70176, "lon": 71.79549, "kind": "village"}, {"name": "Арал", "lat": 42.90034, "lon": 73.89535, "kind": "village"}, {"name": "Арашан", "lat": 42.46279, "lon": 72.24238, "kind": "village"}, {"name": "Арек", "lat": 40.48395, "lon": 72.75234, "kind": "village"}, {"name": "Арпа-Сай", "lat": 40.23628, "lon": 71.95962, "kind": "village"}, {"name": "Арча-Бешик", "lat": 39.80459, "lon": 69.66582, "kind": "village"}, {"name": "Арчалы", "lat": 42.73076, "lon": 74.50815, "kind": "village"}, {"name": "Арык-Бою", "lat": 40.20184, "lon": 72.21289, "kind": "village"}, {"name": "Ат-Башы", "lat": 43.02855, "lon": 74.64133, "kind": "village"}, {"name": "Атабай-Чап", "lat": 41.16591, "lon": 74.59411, "kind": "village"}, {"name": "Атай", "lat": 41.34309, "lon": 73.855, "kind": "village"}, {"name": "Атай Огонбаев айылы", "lat": 42.45879, "lon": 72.34723, "kind": "village"}, {"name": "Аук", "lat": 41.08446, "lon": 72.7345, "kind": "village"}, {"name": "Аюу", "lat": 40.91054, "lon": 73.4626, "kind": "village"}, {"name": "Аң-Өстөн", "lat": 42.45598, "lon": 78.14204, "kind": "village"}, {"name": "Баглан", "lat": 40.22535, "lon": 72.22861, "kind": "village"}, {"name": "Багыш", "lat": 41.01592, "lon": 73.08935, "kind": "village"}, {"name": "Базар-Башы", "lat": 40.07638, "lon": 70.80844, "kind": "village"}, {"name": "Бай Кара-Бак", "lat": 40.13527, "lon": 70.84122, "kind": "village"}, {"name": "Байгелди", "lat": 42.75791, "lon": 74.49154, "kind": "village"}, {"name": "Баймак", "lat": 41.32467, "lon": 71.50574, "kind": "village"}, {"name": "Баймундуз", "lat": 41.04642, "lon": 72.82042, "kind": "village"}, {"name": "Бак Кайың", "lat": 42.60068, "lon": 71.70835, "kind": "village"}, {"name": "Бакмал", "lat": 40.76191, "lon": 73.34794, "kind": "village"}, {"name": "Бактуу-Долоноту", "lat": 42.6555, "lon": 77.14574, "kind": "village"}, {"name": "Бала-Саруу", "lat": 42.6934, "lon": 71.61234, "kind": "village"}, {"name": "Балта-Казы", "lat": 40.83394, "lon": 72.95534, "kind": "village"}, {"name": "Баш-Кара-Суу", "lat": 42.76544, "lon": 74.53377, "kind": "village"}, {"name": "Баш-Кууганды", "lat": 42.01125, "lon": 74.659, "kind": "village"}, {"name": "Белкырчын", "lat": 41.19019, "lon": 74.56663, "kind": "village"}, {"name": "Берюлю", "lat": 42.66045, "lon": 74.24854, "kind": "village"}, {"name": "Беш-Мойнок", "lat": 40.86504, "lon": 73.06121, "kind": "village"}, {"name": "Беш-Терек", "lat": 41.91002, "lon": 74.46828, "kind": "village"}, {"name": "Беш-Өрүк", "lat": 42.90868, "lon": 74.21942, "kind": "village"}, {"name": "Бирдик", "lat": 41.04266, "lon": 72.67005, "kind": "village"}, {"name": "Бирдик", "lat": 43.05248, "lon": 74.6222, "kind": "village"}, {"name": "Биринчи Май", "lat": 42.54743, "lon": 71.75273, "kind": "village"}, {"name": "Биринчи Май", "lat": 42.8021, "lon": 74.24516, "kind": "village"}, {"name": "Биринчи Май", "lat": 42.89539, "lon": 74.34314, "kind": "village"}, {"name": "Биринчи Май", "lat": 42.79662, "lon": 75.00929, "kind": "village"}, {"name": "Биринчи Май", "lat": 42.93183, "lon": 74.80094, "kind": "village"}, {"name": "Бирлешкен", "lat": 41.25686, "lon": 71.18031, "kind": "village"}, {"name": "Боз", "lat": 40.24316, "lon": 72.09808, "kind": "village"}, {"name": "Боз-Адыр", "lat": 39.99773, "lon": 71.07282, "kind": "village"}, {"name": "Боксо-Жол", "lat": 40.74307, "lon": 73.36918, "kind": "village"}, {"name": "Большевик", "lat": 40.78118, "lon": 73.46743, "kind": "village"}, {"name": "Будённовка", "lat": 42.89842, "lon": 74.93011, "kind": "village"}, {"name": "Букара", "lat": 42.70259, "lon": 73.78319, "kind": "village"}, {"name": "Булак-Башы", "lat": 39.9999, "lon": 69.57671, "kind": "village"}, {"name": "Булак-Башы", "lat": 40.08886, "lon": 70.8142, "kind": "village"}, {"name": "Бууракан", "lat": 41.69943, "lon": 73.39317, "kind": "village"}, {"name": "Бүргөндү", "lat": 41.04754, "lon": 72.32653, "kind": "village"}, {"name": "Бөгөт", "lat": 41.06689, "lon": 72.5973, "kind": "village"}, {"name": "ВЛКСМ", "lat": 40.58819, "lon": 72.76134, "kind": "village"}, {"name": "Васильевка", "lat": 43.10063, "lon": 74.58478, "kind": "village"}, {"name": "Верхневосточное", "lat": 43.10327, "lon": 74.4269, "kind": "village"}, {"name": "Виноградное", "lat": 43.09806, "lon": 74.53912, "kind": "village"}, {"name": "Вознесеновка", "lat": 42.81717, "lon": 73.79209, "kind": "village"}, {"name": "Гава", "lat": 41.24061, "lon": 72.8453, "kind": "village"}, {"name": "Газ", "lat": 39.86792, "lon": 71.02096, "kind": "village"}, {"name": "Гидропартия", "lat": 42.84379, "lon": 73.83631, "kind": "village"}, {"name": "Горная Маевка", "lat": 42.70915, "lon": 74.74593, "kind": "village"}, {"name": "Григорьевка Пристаны", "lat": 42.66105, "lon": 77.464, "kind": "village"}, {"name": "Гроздь", "lat": 43.04402, "lon": 74.64266, "kind": "village"}, {"name": "Гулбаар-Толойкон", "lat": 40.50366, "lon": 72.70713, "kind": "village"}, {"name": "Гүлдүрөмө", "lat": 40.17362, "lon": 71.71681, "kind": "village"}, {"name": "Гүмкана", "lat": 41.31507, "lon": 72.96758, "kind": "village"}, {"name": "Дачи Кегети", "lat": 42.60356, "lon": 75.13784, "kind": "village"}, {"name": "Дачное", "lat": 42.94268, "lon": 74.70303, "kind": "village"}, {"name": "Дедемель", "lat": 41.4646, "lon": 74.34088, "kind": "village"}, {"name": "Ден-Алыш", "lat": 42.79517, "lon": 74.25952, "kind": "village"}, {"name": "Ден-Булак 2", "lat": 40.76878, "lon": 73.34631, "kind": "village"}, {"name": "Джайылма", "lat": 40.31446, "lon": 72.29191, "kind": "village"}, {"name": "Джапалак", "lat": 40.49145, "lon": 72.76801, "kind": "village"}, {"name": "Джар-Ооз", "lat": 40.64717, "lon": 73.0429, "kind": "village"}, {"name": "Джегенды", "lat": 40.6584, "lon": 72.84838, "kind": "village"}, {"name": "Джекен", "lat": 42.88218, "lon": 73.87508, "kind": "village"}, {"name": "Джин-Джиген", "lat": 40.26512, "lon": 72.19388, "kind": "village"}, {"name": "Додон", "lat": 40.31601, "lon": 72.2751, "kind": "village"}, {"name": "Донуз-Тоо", "lat": 40.86275, "lon": 73.5589, "kind": "village"}, {"name": "Достук", "lat": 41.41166, "lon": 71.46968, "kind": "village"}, {"name": "Достук", "lat": 41.13528, "lon": 72.15388, "kind": "village"}, {"name": "Достук", "lat": 40.71044, "lon": 73.10037, "kind": "village"}, {"name": "Достук", "lat": 42.82135, "lon": 74.48979, "kind": "village"}, {"name": "Достук", "lat": 42.91718, "lon": 74.51678, "kind": "village"}, {"name": "Дөбө", "lat": 40.16633, "lon": 70.85477, "kind": "village"}, {"name": "Дөбөй", "lat": 40.86459, "lon": 73.03953, "kind": "village"}, {"name": "Дөбөлүү", "lat": 41.44913, "lon": 76.23945, "kind": "village"}, {"name": "Жазгак", "lat": 41.04221, "lon": 72.39169, "kind": "village"}, {"name": "Жазы-Кечүү", "lat": 41.65359, "lon": 72.74712, "kind": "village"}, {"name": "Жай-Терек", "lat": 41.2864, "lon": 72.88669, "kind": "village"}, {"name": "Жайыл", "lat": 42.88254, "lon": 73.80516, "kind": "village"}, {"name": "Жайылган", "lat": 42.75333, "lon": 71.62489, "kind": "village"}, {"name": "Жакынкы Арал", "lat": 42.89027, "lon": 74.27184, "kind": "village"}, {"name": "Жал", "lat": 39.92818, "lon": 71.32568, "kind": "village"}, {"name": "Жал", "lat": 42.79308, "lon": 74.50741, "kind": "village"}, {"name": "Жан-Булак", "lat": 41.43659, "lon": 75.7323, "kind": "village"}, {"name": "Жангакты", "lat": 40.94134, "lon": 73.40716, "kind": "village"}, {"name": "Жаны-Кызы", "lat": 40.65788, "lon": 72.98448, "kind": "village"}, {"name": "Жаны-Кыштак", "lat": 40.5508, "lon": 72.72755, "kind": "village"}, {"name": "Жаны-Талаа", "lat": 40.62766, "lon": 73.46386, "kind": "village"}, {"name": "Жаны-Талап", "lat": 40.68662, "lon": 73.41036, "kind": "village"}, {"name": "Жаны-Чек", "lat": 40.6651, "lon": 72.93153, "kind": "village"}, {"name": "Жаныбек Баатыр", "lat": 42.43734, "lon": 72.2907, "kind": "village"}, {"name": "Жар-Башы", "lat": 42.75956, "lon": 74.95969, "kind": "village"}, {"name": "Жар-Таш", "lat": 41.71081, "lon": 73.42348, "kind": "village"}, {"name": "Жаш-Ленин", "lat": 40.98871, "lon": 72.70126, "kind": "village"}, {"name": "Жаштык", "lat": 40.16512, "lon": 69.80436, "kind": "village"}, {"name": "Жаңгак", "lat": 41.39448, "lon": 71.87006, "kind": "village"}, {"name": "Жаңы-Абад", "lat": 40.23404, "lon": 71.88509, "kind": "village"}, {"name": "Жаңы-Айыл", "lat": 40.20811, "lon": 71.66889, "kind": "village"}, {"name": "Жаңы-Айыл", "lat": 40.87882, "lon": 73.04843, "kind": "village"}, {"name": "Жаңы-Айыл", "lat": 40.84753, "lon": 73.42627, "kind": "village"}, {"name": "Жаңы-Арык", "lat": 41.11225, "lon": 72.6976, "kind": "village"}, {"name": "Жаңы-Арык", "lat": 42.53131, "lon": 78.3872, "kind": "village"}, {"name": "Жаңы-Бак", "lat": 39.9888, "lon": 70.50714, "kind": "village"}, {"name": "Жаңы-Барак", "lat": 40.65558, "lon": 72.7883, "kind": "village"}, {"name": "Жаңы-Жер", "lat": 40.12739, "lon": 70.89612, "kind": "village"}, {"name": "Жаңы-Жер", "lat": 40.28439, "lon": 71.1688, "kind": "village"}, {"name": "Жаңы-Жер", "lat": 43.10746, "lon": 74.38492, "kind": "village"}, {"name": "Жаңы-Жол", "lat": 42.78947, "lon": 75.26159, "kind": "village"}, {"name": "Жаңы-Коргон", "lat": 39.92326, "lon": 71.30822, "kind": "village"}, {"name": "Жаңы-Махалла", "lat": 40.57138, "lon": 72.77442, "kind": "village"}, {"name": "Жаңы-Турмуш", "lat": 39.79688, "lon": 69.92185, "kind": "village"}, {"name": "Жаңы-Чек", "lat": 42.81291, "lon": 75.35362, "kind": "village"}, {"name": "Жезкен", "lat": 39.85591, "lon": 69.3332, "kind": "village"}, {"name": "Жеке-Мисте", "lat": 40.45139, "lon": 72.23562, "kind": "village"}, {"name": "Жети-Таш", "lat": 40.03158, "lon": 70.08246, "kind": "village"}, {"name": "Жетиген", "lat": 40.31103, "lon": 71.23507, "kind": "village"}, {"name": "Жетиген", "lat": 41.6316, "lon": 73.33645, "kind": "village"}, {"name": "Жетим-Дебе", "lat": 40.58043, "lon": 73.49545, "kind": "village"}, {"name": "Жеңиш", "lat": 40.21183, "lon": 71.63579, "kind": "village"}, {"name": "Жеңиш", "lat": 41.02176, "lon": 72.25881, "kind": "village"}, {"name": "Жийде", "lat": 40.67282, "lon": 73.39058, "kind": "village"}, {"name": "Жийде", "lat": 40.84097, "lon": 72.92087, "kind": "village"}, {"name": "Жийде", "lat": 40.9639, "lon": 73.35676, "kind": "village"}, {"name": "Жийде", "lat": 42.67231, "lon": 71.40993, "kind": "village"}, {"name": "Жийде", "lat": 42.72233, "lon": 71.58367, "kind": "village"}, {"name": "Жон-Арык", "lat": 41.08712, "lon": 72.66462, "kind": "village"}, {"name": "Жон-Арык", "lat": 42.50868, "lon": 72.33433, "kind": "village"}, {"name": "Жоон-Дөбө", "lat": 42.68252, "lon": 71.30868, "kind": "village"}, {"name": "Жоон-Дөбө станциясы", "lat": 42.71593, "lon": 71.26172, "kind": "village"}, {"name": "Жошук", "lat": 40.19913, "lon": 71.68983, "kind": "village"}, {"name": "Жыгач-Коргон", "lat": 41.05913, "lon": 73.07972, "kind": "village"}, {"name": "Жылан-Арык", "lat": 41.43528, "lon": 75.22357, "kind": "village"}, {"name": "Жээренчи", "lat": 40.77164, "lon": 73.42571, "kind": "village"}, {"name": "Заводское", "lat": 42.82329, "lon": 74.01304, "kind": "village"}, {"name": "Зарбдар", "lat": 40.59644, "lon": 72.79763, "kind": "village"}, {"name": "Заречное", "lat": 42.75669, "lon": 74.57334, "kind": "village"}, {"name": "Зергер", "lat": 40.91336, "lon": 73.50075, "kind": "village"}, {"name": "Ийри-Суу", "lat": 42.87437, "lon": 73.83617, "kind": "village"}, {"name": "Интернационал", "lat": 40.11575, "lon": 69.67474, "kind": "village"}, {"name": "Интернационал", "lat": 42.79133, "lon": 74.91381, "kind": "village"}, {"name": "Искра", "lat": 39.77572, "lon": 69.46504, "kind": "village"}, {"name": "Исфайрам", "lat": 40.25438, "lon": 71.97019, "kind": "village"}, {"name": "Ичке-Суу", "lat": 42.69878, "lon": 74.80232, "kind": "village"}, {"name": "Ишкаван", "lat": 40.52707, "lon": 72.74415, "kind": "village"}, {"name": "Каду", "lat": 41.23697, "lon": 73.12959, "kind": "village"}, {"name": "Кадыралы", "lat": 41.50603, "lon": 75.24102, "kind": "village"}, {"name": "Кайнар", "lat": 40.61248, "lon": 73.21905, "kind": "village"}, {"name": "Кайнар", "lat": 42.53973, "lon": 71.08329, "kind": "village"}, {"name": "Кайрат", "lat": 40.86864, "lon": 73.44732, "kind": "village"}, {"name": "Кайырма", "lat": 42.74792, "lon": 74.50537, "kind": "village"}, {"name": "Кайырма", "lat": 42.96989, "lon": 74.70025, "kind": "village"}, {"name": "Кайыңды", "lat": 42.65365, "lon": 71.88685, "kind": "village"}, {"name": "Какыр", "lat": 40.26991, "lon": 72.00727, "kind": "village"}, {"name": "Какыр", "lat": 40.80977, "lon": 73.50968, "kind": "village"}, {"name": "Калача", "lat": 40.2596, "lon": 72.05445, "kind": "village"}, {"name": "Калдык", "lat": 42.87028, "lon": 73.75506, "kind": "village"}, {"name": "Калинин", "lat": 41.0895, "lon": 75.67281, "kind": "village"}, {"name": "Калмак-Кырчын", "lat": 41.12365, "lon": 73.4542, "kind": "village"}, {"name": "Калыс-Ордо жаңы курулушу", "lat": 42.9627, "lon": 74.57147, "kind": "village"}, {"name": "Кальта", "lat": 40.86578, "lon": 73.33989, "kind": "village"}, {"name": "Кандава", "lat": 40.70406, "lon": 73.55904, "kind": "village"}, {"name": "Кандуга", "lat": 40.70567, "lon": 73.53368, "kind": "village"}, {"name": "Капчыгай", "lat": 39.88425, "lon": 70.52679, "kind": "village"}, {"name": "Кара-Арча", "lat": 42.75327, "lon": 71.76382, "kind": "village"}, {"name": "Кара-Булак", "lat": 39.84603, "lon": 69.64804, "kind": "village"}, {"name": "Кара-Булак", "lat": 42.68599, "lon": 73.79929, "kind": "village"}, {"name": "Кара-Буура", "lat": 42.5241, "lon": 71.58339, "kind": "village"}, {"name": "Кара-Бүргөн айылы", "lat": 41.21943, "lon": 74.70395, "kind": "village"}, {"name": "Кара-Дарья", "lat": 40.7477, "lon": 73.32498, "kind": "village"}, {"name": "Кара-Добо", "lat": 40.60059, "lon": 72.98277, "kind": "village"}, {"name": "Кара-Дөбө", "lat": 40.2305, "lon": 71.97393, "kind": "village"}, {"name": "Кара-Дөбө", "lat": 42.90337, "lon": 73.72167, "kind": "village"}, {"name": "Кара-Дөбө", "lat": 42.8012, "lon": 74.17922, "kind": "village"}, {"name": "Кара-Жыгач", "lat": 40.50231, "lon": 73.52472, "kind": "village"}, {"name": "Кара-Жыгач", "lat": 41.64049, "lon": 72.05661, "kind": "village"}, {"name": "Кара-Жыгач", "lat": 42.80997, "lon": 74.70536, "kind": "village"}, {"name": "Кара-Ой", "lat": 41.45614, "lon": 75.12184, "kind": "village"}, {"name": "Кара-Сай", "lat": 42.50487, "lon": 71.33303, "kind": "village"}, {"name": "Кара-Суу", "lat": 42.48379, "lon": 72.47315, "kind": "village"}, {"name": "Кара-Чункур", "lat": 42.75274, "lon": 78.6948, "kind": "village"}, {"name": "Караколка", "lat": 41.48975, "lon": 77.36966, "kind": "village"}, {"name": "Кароол", "lat": 40.73585, "lon": 73.24461, "kind": "village"}, {"name": "Касык-Алма", "lat": 40.63854, "lon": 73.26429, "kind": "village"}, {"name": "Катыранкы", "lat": 41.18113, "lon": 73.31336, "kind": "village"}, {"name": "Качыбек (Раздольное)", "lat": 42.6136, "lon": 78.73567, "kind": "village"}, {"name": "Кашат", "lat": 42.71315, "lon": 77.45153, "kind": "village"}, {"name": "Кашка-Суу", "lat": 41.57968, "lon": 71.6768, "kind": "village"}, {"name": "Кашка-Суу", "lat": 42.69932, "lon": 74.53173, "kind": "village"}, {"name": "Кашкалак", "lat": 41.3703, "lon": 71.5646, "kind": "village"}, {"name": "Кедей-Арык", "lat": 41.00311, "lon": 73.06362, "kind": "village"}, {"name": "Кен-Жылга", "lat": 40.38262, "lon": 73.4718, "kind": "village"}, {"name": "Кенеш", "lat": 40.63499, "lon": 73.42646, "kind": "village"}, {"name": "Кереге-Таш", "lat": 40.00495, "lon": 70.00566, "kind": "village"}, {"name": "Кең-Арал", "lat": 42.52545, "lon": 72.11729, "kind": "village"}, {"name": "Кең-Суу", "lat": 42.75533, "lon": 78.72738, "kind": "village"}, {"name": "Кеңеш", "lat": 40.80288, "lon": 73.23837, "kind": "village"}, {"name": "Кеңеш", "lat": 42.77462, "lon": 71.52486, "kind": "village"}, {"name": "Киров", "lat": 40.69882, "lon": 72.88177, "kind": "village"}, {"name": "Киров", "lat": 40.65241, "lon": 73.29475, "kind": "village"}, {"name": "Киров", "lat": 41.01934, "lon": 72.59404, "kind": "village"}, {"name": "Киров", "lat": 42.7682, "lon": 74.16273, "kind": "village"}, {"name": "Киров", "lat": 42.93778, "lon": 74.85158, "kind": "village"}, {"name": "Кичи Шалта", "lat": 42.79097, "lon": 74.43133, "kind": "village"}, {"name": "Козучак", "lat": 42.43629, "lon": 72.27923, "kind": "village"}, {"name": "Кольцо", "lat": 39.97729, "lon": 69.55485, "kind": "village"}, {"name": "Коммунист", "lat": 40.55359, "lon": 72.71955, "kind": "village"}, {"name": "Комсомол", "lat": 40.88905, "lon": 73.00274, "kind": "village"}, {"name": "Конорчок айылы", "lat": 41.24569, "lon": 74.59956, "kind": "village"}, {"name": "Константиновка", "lat": 43.02844, "lon": 74.67363, "kind": "village"}, {"name": "Конурат", "lat": 40.66309, "lon": 72.90517, "kind": "village"}, {"name": "Конуш", "lat": 42.72164, "lon": 74.23741, "kind": "village"}, {"name": "Коо-Чаты", "lat": 40.36151, "lon": 74.29345, "kind": "village"}, {"name": "Коргон", "lat": 40.48929, "lon": 73.27704, "kind": "village"}, {"name": "Корсеты", "lat": 40.9176, "lon": 73.38242, "kind": "village"}, {"name": "Котовский", "lat": 42.91243, "lon": 74.86127, "kind": "village"}, {"name": "Кош-Булак", "lat": 41.46577, "lon": 74.39835, "kind": "village"}, {"name": "Кош-Дебе", "lat": 40.242, "lon": 72.29312, "kind": "village"}, {"name": "Кош-Дөбө", "lat": 40.03807, "lon": 71.62326, "kind": "village"}, {"name": "Кош-Дөбө", "lat": 42.86583, "lon": 74.09011, "kind": "village"}, {"name": "Кош-Дөбө", "lat": 42.70306, "lon": 78.52049, "kind": "village"}, {"name": "Кош-Коргон", "lat": 41.01004, "lon": 72.80877, "kind": "village"}, {"name": "Кош-Терек", "lat": 41.38185, "lon": 71.52039, "kind": "village"}, {"name": "Кош-Эгер", "lat": 40.8731, "lon": 73.69224, "kind": "village"}, {"name": "Красный Маяк", "lat": 40.81297, "lon": 73.3349, "kind": "village"}, {"name": "Кудук-Сай", "lat": 41.22932, "lon": 72.20881, "kind": "village"}, {"name": "Кум", "lat": 41.17929, "lon": 72.16108, "kind": "village"}, {"name": "Кум-Арык", "lat": 42.72619, "lon": 73.71167, "kind": "village"}, {"name": "Кум-Дөбө", "lat": 42.21859, "lon": 75.54644, "kind": "village"}, {"name": "Курама", "lat": 41.00293, "lon": 72.23321, "kind": "village"}, {"name": "Курбан-Кар", "lat": 40.70829, "lon": 72.97287, "kind": "village"}, {"name": "Курбу-Таш", "lat": 40.6159, "lon": 73.29357, "kind": "village"}, {"name": "Курбу-Таш", "lat": 40.62772, "lon": 73.30263, "kind": "village"}, {"name": "Курманжан-Датка", "lat": 40.02322, "lon": 71.56258, "kind": "village"}, {"name": "Куру-Маймак", "lat": 42.69134, "lon": 71.24944, "kind": "village"}, {"name": "Курулуш", "lat": 41.03039, "lon": 72.47381, "kind": "village"}, {"name": "Курулуш", "lat": 41.0478, "lon": 72.56019, "kind": "village"}, {"name": "Кыдырша", "lat": 40.73158, "lon": 72.95699, "kind": "village"}, {"name": "Кыз-Моло", "lat": 43.03545, "lon": 74.07386, "kind": "village"}, {"name": "Кызыл-Адыр", "lat": 42.61793, "lon": 71.58802, "kind": "village"}, {"name": "Кызыл-Алма", "lat": 41.28941, "lon": 72.21204, "kind": "village"}, {"name": "Кызыл-Арык", "lat": 42.70145, "lon": 75.06873, "kind": "village"}, {"name": "Кызыл-Байрак", "lat": 40.88203, "lon": 73.7556, "kind": "village"}, {"name": "Кызыл-Булак", "lat": 40.04301, "lon": 71.74806, "kind": "village"}, {"name": "Кызыл-Жылдыз", "lat": 42.7506, "lon": 71.54516, "kind": "village"}, {"name": "Кызыл-Коргон", "lat": 41.72672, "lon": 74.18993, "kind": "village"}, {"name": "Кызыл-Кошчу", "lat": 40.6457, "lon": 72.92803, "kind": "village"}, {"name": "Кызыл-Кыргызстан", "lat": 40.96845, "lon": 72.54449, "kind": "village"}, {"name": "Кызыл-Кыргызстан", "lat": 40.99702, "lon": 73.01329, "kind": "village"}, {"name": "Кызыл-Кырман", "lat": 40.80411, "lon": 73.22676, "kind": "village"}, {"name": "Кызыл-Кыя", "lat": 41.12637, "lon": 72.37362, "kind": "village"}, {"name": "Кызыл-Октябрь", "lat": 40.71084, "lon": 73.1626, "kind": "village"}, {"name": "Кызыл-Октябрь", "lat": 42.46739, "lon": 72.02837, "kind": "village"}, {"name": "Кызыл-Сай", "lat": 42.55267, "lon": 71.93308, "kind": "village"}, {"name": "Кызыл-Суу", "lat": 42.70763, "lon": 75.47746, "kind": "village"}, {"name": "Кызыл-Тоо", "lat": 40.82817, "lon": 73.52236, "kind": "village"}, {"name": "Кызыл-Туу", "lat": 41.11018, "lon": 72.19227, "kind": "village"}, {"name": "Кызыл-Туу", "lat": 41.07569, "lon": 72.63053, "kind": "village"}, {"name": "Кызыл-Туу", "lat": 42.18431, "lon": 76.67332, "kind": "village"}, {"name": "Кызыл-Чарба", "lat": 40.81018, "lon": 73.57235, "kind": "village"}, {"name": "Кызыл-Эшме", "lat": 39.56455, "lon": 72.27277, "kind": "village"}, {"name": "Кызыл-дыйкан", "lat": 40.77363, "lon": 73.39279, "kind": "village"}, {"name": "Кылчак-Талаа", "lat": 41.09079, "lon": 72.35374, "kind": "village"}, {"name": "Кыр-Джол", "lat": 40.97591, "lon": 72.93856, "kind": "village"}, {"name": "Кыргыз-Каба", "lat": 41.15718, "lon": 72.88504, "kind": "village"}, {"name": "Кыргызстан", "lat": 40.90982, "lon": 73.35434, "kind": "village"}, {"name": "Кыргызстан", "lat": 42.55255, "lon": 71.79581, "kind": "village"}, {"name": "Кырк-Казык", "lat": 42.50619, "lon": 72.36845, "kind": "village"}, {"name": "Кырман 44га", "lat": 42.85184, "lon": 74.69582, "kind": "village"}, {"name": "Кыш-Абад", "lat": 40.65522, "lon": 72.94687, "kind": "village"}, {"name": "Күрпүлдөк", "lat": 42.8997, "lon": 73.5932, "kind": "village"}, {"name": "Көк-Айдар", "lat": 41.06073, "lon": 72.69089, "kind": "village"}, {"name": "Көк-Дөбө", "lat": 42.76685, "lon": 71.44724, "kind": "village"}, {"name": "Көк-Дөбө", "lat": 42.77743, "lon": 77.62114, "kind": "village"}, {"name": "Көк-Жар", "lat": 42.79657, "lon": 74.65228, "kind": "village"}, {"name": "Көк-Кашат", "lat": 42.49798, "lon": 72.42617, "kind": "village"}, {"name": "Көк-Сай", "lat": 42.5102, "lon": 71.12223, "kind": "village"}, {"name": "Көк-Талаа", "lat": 40.22355, "lon": 71.86696, "kind": "village"}, {"name": "Көк-Таш", "lat": 39.95162, "lon": 70.5189, "kind": "village"}, {"name": "Көк-Таш", "lat": 41.1876, "lon": 72.39816, "kind": "village"}, {"name": "Көк-Токой", "lat": 42.51942, "lon": 72.30092, "kind": "village"}, {"name": "Көтөрмө", "lat": 41.85813, "lon": 73.0843, "kind": "village"}, {"name": "Лайлы", "lat": 40.04346, "lon": 69.79138, "kind": "village"}, {"name": "Лангар", "lat": 40.3965, "lon": 73.10207, "kind": "village"}, {"name": "Лейлек", "lat": 39.87827, "lon": 70.09143, "kind": "village"}, {"name": "Ленин", "lat": 42.9687, "lon": 74.6575, "kind": "village"}, {"name": "Ленинское", "lat": 41.02061, "lon": 73.05543, "kind": "village"}, {"name": "Лесное", "lat": 43.06394, "lon": 74.6058, "kind": "village"}, {"name": "Лесхоз", "lat": 40.2518, "lon": 71.98753, "kind": "village"}, {"name": "Луговое", "lat": 43.01185, "lon": 74.68936, "kind": "village"}, {"name": "Маданият", "lat": 40.58404, "lon": 72.859, "kind": "village"}, {"name": "Маданият", "lat": 42.4612, "lon": 71.98591, "kind": "village"}, {"name": "Май", "lat": 42.77379, "lon": 71.47742, "kind": "village"}, {"name": "Маймак", "lat": 42.6809, "lon": 71.21311, "kind": "village"}, {"name": "Макаренко", "lat": 40.8225, "lon": 73.3083, "kind": "village"}, {"name": "Максат", "lat": 40.12805, "lon": 69.69548, "kind": "village"}, {"name": "Малиновка", "lat": 42.69942, "lon": 74.5375, "kind": "village"}, {"name": "Маловодное", "lat": 43.00146, "lon": 74.20266, "kind": "village"}, {"name": "Малтабар", "lat": 42.89176, "lon": 73.98786, "kind": "village"}, {"name": "Манас", "lat": 42.73935, "lon": 71.44966, "kind": "village"}, {"name": "Масадан", "lat": 40.89935, "lon": 72.96993, "kind": "village"}, {"name": "Мичурина", "lat": 40.75495, "lon": 73.37872, "kind": "village"}, {"name": "Миң-Булак", "lat": 39.97832, "lon": 70.62498, "kind": "village"}, {"name": "Миң-Булак", "lat": 42.56524, "lon": 71.89107, "kind": "village"}, {"name": "Миң-Булак", "lat": 42.72738, "lon": 78.51428, "kind": "village"}, {"name": "Миң-Жыгач", "lat": 39.83802, "lon": 69.70702, "kind": "village"}, {"name": "Миң-Чынар", "lat": 40.27497, "lon": 71.16855, "kind": "village"}, {"name": "Миң-Өрүк", "lat": 39.9973, "lon": 70.62399, "kind": "village"}, {"name": "Миң-Өрүк", "lat": 40.88217, "lon": 73.0405, "kind": "village"}, {"name": "Молдовановка", "lat": 42.98838, "lon": 74.72121, "kind": "village"}, {"name": "Моло", "lat": 39.92527, "lon": 71.2429, "kind": "village"}, {"name": "Момбеков", "lat": 41.04418, "lon": 72.41464, "kind": "village"}, {"name": "Монок", "lat": 40.62689, "lon": 72.78614, "kind": "village"}, {"name": "Мраморное", "lat": 43.04907, "lon": 74.49429, "kind": "village"}, {"name": "Мундуз", "lat": 41.44193, "lon": 71.92832, "kind": "village"}, {"name": "Мундуз", "lat": 40.85347, "lon": 72.89389, "kind": "village"}, {"name": "Мырза-Арык", "lat": 40.72551, "lon": 73.22419, "kind": "village"}, {"name": "Мээнеткеч", "lat": 42.77903, "lon": 75.29884, "kind": "village"}, {"name": "Нижневосточное", "lat": 43.11849, "lon": 74.42584, "kind": "village"}, {"name": "Ничке-Сай", "lat": 40.90622, "lon": 73.42179, "kind": "village"}, {"name": "Ничке-Суу", "lat": 40.20649, "lon": 72.19716, "kind": "village"}, {"name": "Ничке-Суу", "lat": 40.53485, "lon": 73.79549, "kind": "village"}, {"name": "Новодонецкий", "lat": 42.78541, "lon": 71.49686, "kind": "village"}, {"name": "Ноошкен", "lat": 41.00897, "lon": 72.19894, "kind": "village"}, {"name": "Норус", "lat": 42.69937, "lon": 74.79454, "kind": "village"}, {"name": "Нур", "lat": 42.78112, "lon": 75.75353, "kind": "village"}, {"name": "Нура", "lat": 39.64329, "lon": 73.86996, "kind": "village"}, {"name": "Нурманбет", "lat": 42.80213, "lon": 74.97839, "kind": "village"}, {"name": "Нылды", "lat": 42.62267, "lon": 72.08242, "kind": "village"}, {"name": "Озёрное", "lat": 42.96982, "lon": 73.63105, "kind": "village"}, {"name": "Ойронду", "lat": 43.00472, "lon": 73.63188, "kind": "village"}, {"name": "Октябрь", "lat": 40.55352, "lon": 72.93673, "kind": "village"}, {"name": "Октябрь", "lat": 40.69348, "lon": 72.92064, "kind": "village"}, {"name": "Октябрь", "lat": 40.68267, "lon": 73.44138, "kind": "village"}, {"name": "Октябрьское", "lat": 42.93981, "lon": 73.56417, "kind": "village"}, {"name": "Он Эки-Бель", "lat": 40.3006, "lon": 72.29509, "kind": "village"}, {"name": "Оргочор", "lat": 42.37313, "lon": 78.04737, "kind": "village"}, {"name": "Орке", "lat": 40.48143, "lon": 72.72562, "kind": "village"}, {"name": "Ормош", "lat": 39.94024, "lon": 71.25807, "kind": "village"}, {"name": "Орто-Азия", "lat": 40.991, "lon": 72.95859, "kind": "village"}, {"name": "Орто-Арык", "lat": 42.51955, "lon": 72.34465, "kind": "village"}, {"name": "Орто-Кайырма", "lat": 42.68715, "lon": 73.8125, "kind": "village"}, {"name": "Орто-Сай", "lat": 41.04182, "lon": 73.0453, "kind": "village"}, {"name": "Орто-Суу", "lat": 42.87887, "lon": 73.94134, "kind": "village"}, {"name": "Осмон", "lat": 40.59046, "lon": 72.97792, "kind": "village"}, {"name": "Оттук", "lat": 42.30704, "lon": 76.30004, "kind": "village"}, {"name": "Падаван", "lat": 40.56533, "lon": 72.82263, "kind": "village"}, {"name": "Паскы-Арык", "lat": 40.00168, "lon": 70.57149, "kind": "village"}, {"name": "Петропавловка", "lat": 42.83457, "lon": 73.91692, "kind": "village"}, {"name": "Подснежник", "lat": 42.76534, "lon": 74.97945, "kind": "village"}, {"name": "Правда", "lat": 40.69217, "lon": 73.12022, "kind": "village"}, {"name": "Привольное", "lat": 43.07974, "lon": 74.54676, "kind": "village"}, {"name": "Прогресс", "lat": 40.79888, "lon": 73.31456, "kind": "village"}, {"name": "Пылдырак", "lat": 40.24926, "lon": 71.9673, "kind": "village"}, {"name": "Разан-Сай", "lat": 41.47945, "lon": 72.29715, "kind": "village"}, {"name": "Раззаков", "lat": 40.10135, "lon": 69.59996, "kind": "village"}, {"name": "Рассвет", "lat": 43.0111, "lon": 74.56899, "kind": "village"}, {"name": "Раут", "lat": 39.75004, "lon": 70.91618, "kind": "village"}, {"name": "Рахманжан", "lat": 41.04513, "lon": 72.53964, "kind": "village"}, {"name": "Ровное", "lat": 42.89502, "lon": 73.52864, "kind": "village"}, {"name": "Рухий-Мурас", "lat": 42.85064, "lon": 74.70089, "kind": "village"}, {"name": "Савай", "lat": 40.74526, "lon": 72.97702, "kind": "village"}, {"name": "Савай-Арык", "lat": 40.67507, "lon": 72.94523, "kind": "village"}, {"name": "Садырбай", "lat": 40.61777, "lon": 73.03544, "kind": "village"}, {"name": "Саз", "lat": 42.76287, "lon": 74.23013, "kind": "village"}, {"name": "Сай", "lat": 39.90536, "lon": 71.21369, "kind": "village"}, {"name": "Сакалды", "lat": 40.99338, "lon": 72.54586, "kind": "village"}, {"name": "Саламалик", "lat": 40.84001, "lon": 73.62973, "kind": "village"}, {"name": "Сарбан", "lat": 42.78463, "lon": 74.51837, "kind": "village"}, {"name": "Сары-Алтын", "lat": 40.23198, "lon": 71.9487, "kind": "village"}, {"name": "Сары-Булак", "lat": 40.88226, "lon": 73.81203, "kind": "village"}, {"name": "Сары-Булак", "lat": 42.63879, "lon": 72.03166, "kind": "village"}, {"name": "Сары-Бээ", "lat": 41.30837, "lon": 72.49623, "kind": "village"}, {"name": "Сары-Дөбө", "lat": 39.79719, "lon": 69.44133, "kind": "village"}, {"name": "Сары-Дөбө", "lat": 42.7322, "lon": 78.47597, "kind": "village"}, {"name": "Сары-Жон", "lat": 42.80388, "lon": 74.74635, "kind": "village"}, {"name": "Сары-Колот", "lat": 40.67777, "lon": 73.01167, "kind": "village"}, {"name": "Сары-Талаа", "lat": 39.99888, "lon": 71.43935, "kind": "village"}, {"name": "Сары-Тологой", "lat": 42.72475, "lon": 78.78356, "kind": "village"}, {"name": "Сасык-Булак", "lat": 42.46725, "lon": 72.65499, "kind": "village"}, {"name": "Сафаровка", "lat": 41.03539, "lon": 73.12175, "kind": "village"}, {"name": "Сафедбулан", "lat": 41.42882, "lon": 71.654, "kind": "village"}, {"name": "Семиз-Кол", "lat": 40.76621, "lon": 73.53902, "kind": "village"}, {"name": "Совет-Сай", "lat": 41.20292, "lon": 71.43328, "kind": "village"}, {"name": "Согмент", "lat": 39.88845, "lon": 71.04142, "kind": "village"}, {"name": "Социализм", "lat": 40.54032, "lon": 72.94385, "kind": "village"}, {"name": "Степное", "lat": 43.16638, "lon": 73.95796, "kind": "village"}, {"name": "Студенческое", "lat": 42.94975, "lon": 74.39438, "kind": "village"}, {"name": "Сумсар", "lat": 41.30823, "lon": 71.25081, "kind": "village"}, {"name": "Сур", "lat": 39.95139, "lon": 71.26106, "kind": "village"}, {"name": "Суулу-Маймак", "lat": 42.66993, "lon": 71.29135, "kind": "village"}, {"name": "Сөгөт", "lat": 42.73008, "lon": 71.78347, "kind": "village"}, {"name": "Табылгы", "lat": 39.75954, "lon": 70.96974, "kind": "village"}, {"name": "Табылгыты", "lat": 41.72199, "lon": 74.2066, "kind": "village"}, {"name": "Тайгараев", "lat": 41.0101, "lon": 73.03579, "kind": "village"}, {"name": "Тайлан", "lat": 39.8195, "lon": 69.53171, "kind": "village"}, {"name": "Такталык", "lat": 41.6373, "lon": 73.27588, "kind": "village"}, {"name": "Талаа", "lat": 40.43664, "lon": 73.27239, "kind": "village"}, {"name": "Талас", "lat": 42.76156, "lon": 71.41496, "kind": "village"}, {"name": "Талды-Булак", "lat": 42.39837, "lon": 72.99951, "kind": "village"}, {"name": "Таш-Арык", "lat": 40.65359, "lon": 73.06956, "kind": "village"}, {"name": "Таш-Арык", "lat": 42.52975, "lon": 72.37232, "kind": "village"}, {"name": "Таш-Башат", "lat": 42.7065, "lon": 71.53202, "kind": "village"}, {"name": "Таш-Башат", "lat": 41.46716, "lon": 76.39723, "kind": "village"}, {"name": "Таш-Булак", "lat": 40.24, "lon": 72.23888, "kind": "village"}, {"name": "Таш-Булак", "lat": 40.94937, "lon": 73.02917, "kind": "village"}, {"name": "Таш-Дөбө", "lat": 40.18991, "lon": 71.67605, "kind": "village"}, {"name": "Таш-Кудук", "lat": 42.47971, "lon": 72.03608, "kind": "village"}, {"name": "Таш-Кутчу", "lat": 40.97764, "lon": 73.0444, "kind": "village"}, {"name": "Таш-Кыя", "lat": 40.14277, "lon": 71.72391, "kind": "village"}, {"name": "Ташлак", "lat": 40.54221, "lon": 72.84496, "kind": "village"}, {"name": "Таштак", "lat": 40.87321, "lon": 73.04459, "kind": "village"}, {"name": "Тельман", "lat": 42.70886, "lon": 73.75656, "kind": "village"}, {"name": "Терек", "lat": 40.36375, "lon": 74.21929, "kind": "village"}, {"name": "Терек", "lat": 41.23098, "lon": 74.99579, "kind": "village"}, {"name": "Терек-Суу", "lat": 41.88688, "lon": 72.69933, "kind": "village"}, {"name": "Терек-Суу", "lat": 40.5315, "lon": 73.82588, "kind": "village"}, {"name": "Тескей", "lat": 39.90263, "lon": 71.28342, "kind": "village"}, {"name": "Теңги", "lat": 41.20805, "lon": 71.23327, "kind": "village"}, {"name": "Тоготой", "lat": 40.66519, "lon": 73.43285, "kind": "village"}, {"name": "Токтогул", "lat": 40.82507, "lon": 73.40066, "kind": "village"}, {"name": "Толман", "lat": 40.32018, "lon": 72.22745, "kind": "village"}, {"name": "Торук", "lat": 41.39659, "lon": 71.81957, "kind": "village"}, {"name": "Тосор", "lat": 42.16788, "lon": 77.44176, "kind": "village"}, {"name": "Тынчтык", "lat": 40.70401, "lon": 72.95682, "kind": "village"}, {"name": "Тынчтык", "lat": 42.88874, "lon": 74.46401, "kind": "village"}, {"name": "Тээке", "lat": 40.47295, "lon": 72.71398, "kind": "village"}, {"name": "Түйтө", "lat": 42.49276, "lon": 72.11699, "kind": "village"}, {"name": "Түрк-Абад", "lat": 40.85818, "lon": 73.00277, "kind": "village"}, {"name": "Төлөк", "lat": 43.10854, "lon": 74.08307, "kind": "village"}, {"name": "Төмөнкү Ала-Арча", "lat": 42.92788, "lon": 74.60303, "kind": "village"}, {"name": "Төмөнкү Серафимовка", "lat": 42.76399, "lon": 74.85214, "kind": "village"}, {"name": "Төрт-Күл", "lat": 42.11405, "lon": 76.94907, "kind": "village"}, {"name": "Улук", "lat": 41.41894, "lon": 71.827, "kind": "village"}, {"name": "Умай-Эне", "lat": 40.287, "lon": 71.33107, "kind": "village"}, {"name": "Ууру-Жар", "lat": 41.04968, "lon": 72.28152, "kind": "village"}, {"name": "Уч-Капчак", "lat": 40.55415, "lon": 73.36606, "kind": "village"}, {"name": "Учар", "lat": 40.48835, "lon": 72.78947, "kind": "village"}, {"name": "Учкун", "lat": 41.38133, "lon": 75.35943, "kind": "village"}, {"name": "Фрунзе атындагы", "lat": 42.91852, "lon": 74.43258, "kind": "village"}, {"name": "Фёдоровка", "lat": 42.84675, "lon": 73.87926, "kind": "village"}, {"name": "Чагыр", "lat": 40.54845, "lon": 72.92335, "kind": "village"}, {"name": "Чал-Таш", "lat": 40.14523, "lon": 71.73265, "kind": "village"}, {"name": "Чалдыбар", "lat": 42.82162, "lon": 73.52921, "kind": "village"}, {"name": "Чалкойдо", "lat": 40.74081, "lon": 73.6591, "kind": "village"}, {"name": "Чарбак", "lat": 39.89809, "lon": 71.07571, "kind": "village"}, {"name": "Чат-Базар", "lat": 42.48624, "lon": 72.56743, "kind": "village"}, {"name": "Чат-Көл", "lat": 42.93812, "lon": 74.34856, "kind": "village"}, {"name": "Чек", "lat": 40.11052, "lon": 70.84655, "kind": "village"}, {"name": "Чек", "lat": 41.04343, "lon": 72.37273, "kind": "village"}, {"name": "Чекелик", "lat": 40.21502, "lon": 71.69079, "kind": "village"}, {"name": "Челекчи", "lat": 40.21673, "lon": 72.17708, "kind": "village"}, {"name": "Четинди", "lat": 42.64133, "lon": 74.23673, "kind": "village"}, {"name": "Чеч-Дөбө", "lat": 42.69742, "lon": 71.79367, "kind": "village"}, {"name": "Чеч-Дөбө", "lat": 41.66158, "lon": 73.44078, "kind": "village"}, {"name": "Чечме", "lat": 39.94417, "lon": 71.21161, "kind": "village"}, {"name": "Чолпонбай", "lat": 42.62402, "lon": 71.51725, "kind": "village"}, {"name": "Чоргочу", "lat": 41.69486, "lon": 73.4752, "kind": "village"}, {"name": "Чоң-Арык", "lat": 42.804, "lon": 74.52719, "kind": "village"}, {"name": "Чоң-Багыш", "lat": 40.9808, "lon": 72.51304, "kind": "village"}, {"name": "Чоң-Гара", "lat": 40.25884, "lon": 71.00956, "kind": "village"}, {"name": "Чоң-Жар", "lat": 42.7804, "lon": 74.45833, "kind": "village"}, {"name": "Чоң-Капка", "lat": 42.70534, "lon": 71.5776, "kind": "village"}, {"name": "Чоң-Кара-Буура", "lat": 42.52785, "lon": 71.55617, "kind": "village"}, {"name": "Чоң-Курулуш", "lat": 40.98005, "lon": 72.66537, "kind": "village"}, {"name": "Чоң-Талаа", "lat": 40.16496, "lon": 70.86417, "kind": "village"}, {"name": "Чоң-Таш", "lat": 42.77243, "lon": 78.62171, "kind": "village"}, {"name": "Чымбай", "lat": 40.71512, "lon": 73.37914, "kind": "village"}, {"name": "Чымкен", "lat": 39.87732, "lon": 69.5027, "kind": "village"}, {"name": "Чүй", "lat": 43.12275, "lon": 74.53028, "kind": "village"}, {"name": "Чүйүт-Сай", "lat": 41.2661, "lon": 72.22458, "kind": "village"}, {"name": "Чөкө-Дөбө", "lat": 40.8999, "lon": 73.0047, "kind": "village"}, {"name": "Шагым", "lat": 40.65748, "lon": 73.21246, "kind": "village"}, {"name": "Шады", "lat": 40.18345, "lon": 71.66456, "kind": "village"}, {"name": "Шак-Шак", "lat": 39.92734, "lon": 71.34701, "kind": "village"}, {"name": "Шамал-Терек", "lat": 40.79514, "lon": 73.56973, "kind": "village"}, {"name": "Шералы", "lat": 40.62623, "lon": 72.99947, "kind": "village"}, {"name": "Шералы", "lat": 40.75283, "lon": 73.27914, "kind": "village"}, {"name": "Шор-Булак", "lat": 42.2618, "lon": 76.55503, "kind": "village"}, {"name": "Шоро-Башат", "lat": 40.83886, "lon": 73.26782, "kind": "village"}, {"name": "Ызар", "lat": 41.35386, "lon": 71.51188, "kind": "village"}, {"name": "Ынтымак", "lat": 40.26226, "lon": 71.65268, "kind": "village"}, {"name": "Ынтымак", "lat": 40.21278, "lon": 72.19154, "kind": "village"}, {"name": "Ынтымак", "lat": 40.75707, "lon": 73.00642, "kind": "village"}, {"name": "Ынтымак", "lat": 40.97424, "lon": 72.99591, "kind": "village"}, {"name": "Ынтымак", "lat": 40.71024, "lon": 73.41496, "kind": "village"}, {"name": "Ынтымак", "lat": 42.88555, "lon": 74.49063, "kind": "village"}, {"name": "Ысык-Көл", "lat": 42.36804, "lon": 77.90064, "kind": "village"}, {"name": "Эркин", "lat": 40.68087, "lon": 72.89943, "kind": "village"}, {"name": "Эркин-Сай", "lat": 42.69613, "lon": 73.80477, "kind": "village"}, {"name": "Эркин-Тоо", "lat": 40.81784, "lon": 73.58711, "kind": "village"}, {"name": "Эски-Масы", "lat": 41.10286, "lon": 72.66794, "kind": "village"}, {"name": "Эски-Оочу", "lat": 40.08065, "lon": 69.69893, "kind": "village"}, {"name": "Эфиронос", "lat": 42.80053, "lon": 73.74472, "kind": "village"}, {"name": "Эшме", "lat": 39.95331, "lon": 71.30315, "kind": "village"}, {"name": "Үлгү", "lat": 40.88706, "lon": 72.98927, "kind": "village"}, {"name": "Үч-Дөбө", "lat": 39.94999, "lon": 70.48645, "kind": "village"}, {"name": "Үч-Коргон", "lat": 42.77908, "lon": 71.55345, "kind": "village"}, {"name": "Үч-Эмчек", "lat": 42.69847, "lon": 74.77001, "kind": "village"}, {"name": "Өзгөрүш", "lat": 40.79693, "lon": 73.27387, "kind": "village"}, {"name": "Өзгөрүш", "lat": 42.52013, "lon": 72.05281, "kind": "village"}, {"name": "Өндүрүш", "lat": 40.01104, "lon": 71.53722, "kind": "village"}, {"name": "Өрүкзар", "lat": 40.29173, "lon": 71.25701, "kind": "village"}, {"name": "Өрүктү-Сай", "lat": 41.4452, "lon": 71.42265, "kind": "village"}, {"name": "Өтүкчү", "lat": 40.11202, "lon": 71.09386, "kind": "village"}]}